idsbr,Query,Actual Place Name,Category,Rating,Address,Phone Number,Website,Latitude,Longitude,Status,Open Status,Operation Hours,Place,Validasi
16741485,"TEMPAT KITA INDONESIA, Jalan Pacar No. 2",PT Tempat Kita Indonesia,Tidak ada ulasan,Gagal,"· Ngagel Tama Tengah II No.17, RT.006/RW.02",Gagal,Gagal,-7.2895527,112.7573316,Aktif,Gagal,"· Ngagel Tama Tengah II No.17, RT.006/RW.02 · Ngagel Tama Tengah II No.17, RT.006/RW.02","TEMPAT KITA INDONESIA, Jalan Pacar No. 2",Ditemukan
16741485,"TEMPAT KITA INDONESIA, Jalan Pacar No. 2",Roemah Kita CAFE & RESTO,Kedai Kopi,"4,0","· Jl. Kedung Sroko No.123, RT.009/RW.03",Gagal,Gagal,-7.2650914,112.7604438,Tutup,· Tutup pukul 22.00,Buka · Tutup pukul 22.00 · Buka · Tutup pukul 22.00,"TEMPAT KITA INDONESIA, Jalan Pacar No. 2",Tidak Ditemukan
16741485,"TEMPAT KITA INDONESIA, Jalan Pacar No. 2",Tentang kita,Tidak ada ulasan,Gagal,"· QQ54+PFG, Jl. Kenjeran IV",Gagal,Gagal,-7.2406897,112.7561915,Aktif,Gagal,Gagal,"TEMPAT KITA INDONESIA, Jalan Pacar No. 2",Tidak Ditemukan
16742154,"UNTUNGKUMORO, JL SIDOTOPO WETAN NO. 1A",Mitra10 Kedungdoro - Spesialis Bahan Bangunan,Toko Bahan Bangunan,"4,4",· Jl. Kedung Doro No.62 - 64,0878-0002-1010,Gagal,-7.2642351,112.7303235,Tutup,· Tutup pukul 22.00,Buka · Tutup pukul 22.00 · Buka · Tutup pukul 22.00,"UNTUNGKUMORO, JL SIDOTOPO WETAN NO. 1A",Ditemukan
16742154,"UNTUNGKUMORO, JL SIDOTOPO WETAN NO. 1A",PT. Jatmiko Cipta Karya,Toko Alat-Alat,"4,6",· Jl. Kedungsari No.26-28,(031) 99244313,Gagal,-7.2673342,112.7341098,Tutup,· Tutup pukul 17.00,Buka · Tutup pukul 17.00 · Buka · Tutup pukul 17.00,"UNTUNGKUMORO, JL SIDOTOPO WETAN NO. 1A",Tidak Ditemukan
16742154,"UNTUNGKUMORO, JL SIDOTOPO WETAN NO. 1A",tokobukumurahonline.com,Toko Buku,"4,8",· Jl. Raya Dharma Husada Indah No.105,0815-5384-8452,Gagal,-7.2773121,112.7728197,Tutup,· Tutup pukul 21.30,Buka · Tutup pukul 21.30 · Buka · Tutup pukul 21.30,"UNTUNGKUMORO, JL SIDOTOPO WETAN NO. 1A",Tidak Ditemukan
16742154,"UNTUNGKUMORO, JL SIDOTOPO WETAN NO. 1A",TBMO - Dharmahusada,Toko Alat Tulis,"4,7",· Jl. Raya Dharma Husada Indah No.22 / 105 Blok D,(031) 5922716,Gagal,-7.2773045,112.7728933,Tutup,· Tutup pukul 22.00,Buka · Tutup pukul 22.00 · Buka · Tutup pukul 22.00,"UNTUNGKUMORO, JL SIDOTOPO WETAN NO. 1A",Tidak Ditemukan
16742154,"UNTUNGKUMORO, JL SIDOTOPO WETAN NO. 1A",CV. SATU MENARA EMAS,Toko umum,"4,9",Gagal,0812-4997-8841,Gagal,-7.2324973,112.7616357,Aktif,Buka 24 jam,Buka 24 jam · Buka 24 jam,"UNTUNGKUMORO, JL SIDOTOPO WETAN NO. 1A",Tidak Ditemukan
16758399,"Cv Surabaya Jersey, Jl. Bratang Gede 3-H No. 8",Surabaya Jersey Indonesia,Gagal,"5,0"," Jl. Bratang Gede 3H No.8, Ngagelrejo, Kec. Wonokromo, Surabaya, Jawa Timur 60245",Gagal,Gagal,-7.3011296,112.7538927,Tutup Permanen,Gagal,Gagal,"Cv Surabaya Jersey, Jl. Bratang Gede 3-H No. 8",Ditemukan
16758621,"Mentari Maju Mandiri, Komplek Pergudangan Fira 51 Jl. Nambangan 173-K Bok A-15 Surabaya",PT. Mentari Maju Mandiri,Kantor Perusahaan,"5,0"," Office : Ruko Fira 51, Blok C-22 Jl.Raya Kenjeran 475-481, Surabaya 60134 Warehouse : Komplek Pergudangan Fira 51 Blok A-12, Jl. Nambangan Jl. Kedung Cowek No.173, Kec. Bulak, Surabaya, Jawa Timur 60125",Gagal,http://mentarimajumandiri.com/,-7.2222708,112.7862635,Aktif,· Tutup pukul 17.00,Gagal,"Mentari Maju Mandiri, Komplek Pergudangan Fira 51 Jl. Nambangan 173-K Bok A-15 Surabaya",Ditemukan
16758624,"NS BLUESCOPE LYSAGHT INDONESIA, KAWASAN INDUSTRI SURABAYA INDUSTRIAL ESTATE RUNGKUT (SIER), JL. RUNGKUT INDUSTRI IV NO. 24",PT. NS BlueScope Lysaght Indonesia,Kantor Perusahaan,"4,9"," No.24C-24D, Jl. Rungkut Industri IV, Rungkut Tengah, Kec. Gn. Anyar, Surabaya, Jawa Timur 60293",Gagal,https://www.lysaghtasean.com/id/,-7.3338043,112.7582585,Aktif,· Tutup pukul 17.00,Gagal,"NS BLUESCOPE LYSAGHT INDONESIA, KAWASAN INDUSTRI SURABAYA INDUSTRIAL ESTATE RUNGKUT (SIER), JL. RUNGKUT INDUSTRI IV NO. 24",Ditemukan
16758755,"Setia Dirgantara Sentosa, Jalan Kedung Anyar IX No 19",Kantor Distributor Saktisetia Santosa,Kantor Perusahaan,"5,0",· Jl. Sidodadi No.139,Gagal,Gagal,-7.2326298,112.7465257,Aktif,Gagal,Gagal,"Setia Dirgantara Sentosa, Jalan Kedung Anyar IX No 19",Ditemukan
16758755,"Setia Dirgantara Sentosa, Jalan Kedung Anyar IX No 19",Distributor Bahan Makanan/ minuman PT. Saktisetia Santosa,Layanan Distribusi,"4,3",· Jl. Kertopaten No.16,(031) 3711554,Gagal,-7.2346472,112.7457051,Tutup,· Tutup pukul 17.00,Buka · Tutup pukul 17.00 · Buka · Tutup pukul 17.00,"Setia Dirgantara Sentosa, Jalan Kedung Anyar IX No 19",Tidak Ditemukan
16758772,"Sentral Baja Indonesia, JL. Greges Jaya II No. 8 Blok C-9, Kota Surabaya, Provinsi Jawa Timur",Sentral Baja Indonesia,Steel construction company,"4,9"," Ruko Plaza Segi 8, Jl. Raya Darmo Permai III No.862 Blok C, Sonokwijenan, Sukomanunggal, Surabaya, East Java 60226",Gagal,Gagal,-7.2758096,112.6974875,Aktif,· Tutup pukul 17.00,Gagal,"Sentral Baja Indonesia, JL. Greges Jaya II No. 8 Blok C-9, Kota Surabaya, Provinsi Jawa Timur",Ditemukan
16758773,"Somawi Surya Semesta, JL SOPONYONO PRAPEN MASJID",PT Somawi Surya Semesta (SYSCO FIRE),Kantor Perusahaan,"4,5",Gagal,0852-5711-4711,Gagal,-7.8235814,112.0178623,Tutup,· Tutup pukul 16.00,Buka · Tutup pukul 16.00 · Buka · Tutup pukul 16.00,"Somawi Surya Semesta, JL SOPONYONO PRAPEN MASJID",Ditemukan
16758773,"Somawi Surya Semesta, JL SOPONYONO PRAPEN MASJID",DISTRIBUTOR APAR SNI SERVVO - SURABAYA,Pemasok Sistem Perlindungan Kebakaran,"5,0",· Taman Jemursari Selatan I No.6A,0822-3337-6852,Gagal,-7.3270394,112.7381974,Tutup,· Tutup pukul 18.00,· Taman Jemursari Selatan I No.6A · Taman Jemursari Selatan I No.6A,"Somawi Surya Semesta, JL SOPONYONO PRAPEN MASJID",Tidak Ditemukan
16807599,"ARTHA ADIPERSADA, Jl. Margomulyo 44 Blok NN No. 04",PT. Artha Adipersada (Warehouse),Tidak ada ulasan,Gagal,"· NN-04, Jl. Pergudangan Suri Mulia Permai No.44",(031) 99441555,Gagal,-7.2403318,112.6985261,Tutup,· Tutup pukul 17.00,Buka · Tutup pukul 17.00 · Buka · Tutup pukul 17.00,"ARTHA ADIPERSADA, Jl. Margomulyo 44 Blok NN No. 04",Ditemukan
16807599,"ARTHA ADIPERSADA, Jl. Margomulyo 44 Blok NN No. 04",PT. Artha Adipersada,Layanan Distribusi,"4,1","· RMI, Ruko Manyar Indah, Jl. Ngagel Jaya Sel. B27-28",(031) 99441777,Gagal,-7.2942368,112.760521,Tutup,· Tutup pukul 17.00,Buka · Tutup pukul 17.00 · Buka · Tutup pukul 17.00,"ARTHA ADIPERSADA, Jl. Margomulyo 44 Blok NN No. 04",Tidak Ditemukan
16807599,"ARTHA ADIPERSADA, Jl. Margomulyo 44 Blok NN No. 04",PT. Artha Adipersada (Berikat),Gudang,"4,0","· Warehouse Pt. Pine International, Jl. Pergudangan Margomulyo Permai",(031) 7499042,Gagal,-7.2470332,112.6913589,Tutup,· Tutup pukul 17.00,Buka · Tutup pukul 17.00 · Buka · Tutup pukul 17.00,"ARTHA ADIPERSADA, Jl. Margomulyo 44 Blok NN No. 04",Tidak Ditemukan
16807671,"BINTANG JAYA, Jl. Raya Rungkut 2 A,",Bintang jaya,Toko Percetakan,"4,3","· III, Jl. Raya Tenggilis Mejoyo Jl. Rungkut Mejoyo Utara No.6 Blok AH",0811-3300-030,Gagal,-7.3194065,112.7653855,Tutup,· Tutup pukul 17.00,Buka · Tutup pukul 17.00 · Buka · Tutup pukul 17.00,"BINTANG JAYA, Jl. Raya Rungkut 2 A,",Ditemukan
16807671,"BINTANG JAYA, Jl. Raya Rungkut 2 A,",PT Bintang Indo Jaya,Toko Roti,"4,5",· Jl. Rungkut Industri III No.34B,(031) 8474570,Gagal,-7.3356857,112.7542364,Tutup,· Tutup pukul 16.00,Buka · Tutup pukul 16.00 · Buka · Tutup pukul 16.00,"BINTANG JAYA, Jl. Raya Rungkut 2 A,",Tidak Ditemukan
16807704,"BUMI CENTRAL HARAPAN, JL MARGOMULYO III 14-B",Batagor siomay bandung Tanjungsari,Restoran Indonesia,"4,0"," Jl. Tj. Sari No.11-13, Sukomanunggal, Kec. Sukomanunggal, Surabaya, Jawa Timur 60188",Gagal,Gagal,-7.2583221,112.6968835,Aktif,Gagal,Gagal,"BUMI CENTRAL HARAPAN, JL MARGOMULYO III 14-B",Ditemukan
16807799,"DUTA INDAH ABADI, JL. KALIANAK BARAT NO. 59 A",Mesin Laundry Rumah Sakit & Hotel by Duta Indah Abadi Surabaya,Toko Mesin Cuci & Pengering,"4,9"," Gudang Panadia, Jl. Kalianak Barat No.59A Blok N2, Asem Rowo, Kec. Asem Rowo, Surabaya, Jawa Timur 60153",Gagal,http://www.mesinlaundry.co.id/,-7.2317364,112.6967768,Aktif,Gagal,Gagal,"DUTA INDAH ABADI, JL. KALIANAK BARAT NO. 59 A",Ditemukan
16807828,"ENERGI MALANG ANDALAN SUKSES, Margomulyo 44 gudang Surimulya Blok L No. 6C Rt 003 Rw 001",PT ENERGI MALANG ANDALAN SUKSES,Pabrik Baja,"4,5"," Jl. Margomulyo Indah No.23 BLOK C, Buntaran, Kec. Tandes, Surabaya, Jawa Timur 60184",Gagal,Gagal,-7.245811,112.6655578,Aktif,· Tutup pukul 16.00,Gagal,"ENERGI MALANG ANDALAN SUKSES, Margomulyo 44 gudang Surimulya Blok L No. 6C Rt 003 Rw 001",Ditemukan
16807847,"FIRST INDONESIA REFURBISH MANUFACTUR,, Jl. Mastrip 90,",PT. FIRM SURABAYA,Kantor Perusahaan,"4,2"," Kemlaten Jl. Raya Mastrip Kemlaten No.24, Kebraon, Kec. Karangpilang, Surabaya, Jawa Timur 60222",Gagal,https://firmsurabaya.com/,-7.3291072,112.7080487,Aktif,· Tutup pukul 16.00,Gagal,"FIRST INDONESIA REFURBISH MANUFACTUR,, Jl. Mastrip 90,",Ditemukan
16807899,"GRHADIKA GLOBAL INDONESIA, Kedindinding Tengah Jaya II TImur A No 39",Jl. Kedinding Tengah Jaya II,Tidak ada ulasan,Gagal,Kec. Kenjeran,Gagal,Gagal,-7.2250097,112.7786231,Aktif,Gagal,Gagal,"GRHADIKA GLOBAL INDONESIA, Kedindinding Tengah Jaya II TImur A No 39",Ditemukan
16807932,"HARMA CONTRACTOR INDONESIA, Jl. Margomulyo 44 (Jl. Margomulyo Industri XIII) Blok HH No. 9, 10, 20-22",PT. Harma Contractor Indonesia,Kantor Perusahaan,"4,8"," Pergudangan Suri Mulya Permai, Jl. Pergudangan Suri Mulia No.44 Blok HH-20, Asem Rowo, Kec. Asem Rowo, Surabaya, Jawa Timur 60182",Gagal,http://harma.co.id/,-7.2387023,112.6984464,Aktif,· Tutup pukul 16.00,Gagal,"HARMA CONTRACTOR INDONESIA, Jl. Margomulyo 44 (Jl. Margomulyo Industri XIII) Blok HH No. 9, 10, 20-22",Ditemukan
16808041,"JAYA MAS MANDIRI PLUS, PT, Jl. Margomulyo Industri 44 Hh 19 ,",PT Jaya Mas Mandiri Plus,Kantor Perusahaan,"4,4"," Jl. Pakal No.124, Pakal, Kec. Pakal, Surabaya, Jawa Timur 60196",Gagal,http://www.jplus.co.id/,-7.2360693,112.616955,Aktif,Gagal,Gagal,"JAYA MAS MANDIRI PLUS, PT, Jl. Margomulyo Industri 44 Hh 19 ,",Ditemukan
16808126,"KON HWA, Jl. Osoilangon No 19",PT. Kon Hwa,Kantor Perusahaan,"4,0"," Jl. Kembang Jepun No.27, Bongkaran, Kec. Pabean Cantikan, Surabaya, Jawa Timur 60161",Gagal,http://ptkonhwa.com/,-7.2372132,112.7404073,Aktif,· Tutup pukul 16.30,Gagal,"KON HWA, Jl. Osoilangon No 19",Ditemukan
16808138,"KRIS JAYA ADYMIX SURABAYA, JL. DUPAK RUKUN NO. 83",KRISJAYA ADYMIX BETON,Kantor Perusahaan,"4,8"," Jl. Dupak Rukun No.83, Asem Rowo, Kec. Asem Rowo, Surabaya, Jawa Timur 60182",Gagal,Gagal,-7.2457364,112.7116686,Aktif,· Tutup pukul 17.00,Gagal,"KRIS JAYA ADYMIX SURABAYA, JL. DUPAK RUKUN NO. 83",Ditemukan
16808231,"MASTER MAT INDONESIA, JL. Romokalisari Industri Raya 1 No. 35 Surabaya",PT. Master Mat Indonesia,Grosir karpet,"4,9",· Jl. Ketupa No.40,(031) 5487777,Gagal,-7.253659,112.749309,Tutup,· Tutup pukul 16.30,Buka · Tutup pukul 16.30 · Buka · Tutup pukul 16.30,"MASTER MAT INDONESIA, JL. Romokalisari Industri Raya 1 No. 35 Surabaya",Ditemukan
16808231,"MASTER MAT INDONESIA, JL. Romokalisari Industri Raya 1 No. 35 Surabaya",Mastermat,Tidak ada ulasan,Gagal,· Jl. Romokalisari I No.17,Gagal,Gagal,-7.1989671,112.6426751,Aktif,Gagal,Gagal,"MASTER MAT INDONESIA, JL. Romokalisari Industri Raya 1 No. 35 Surabaya",Tidak Ditemukan
16808231,"MASTER MAT INDONESIA, JL. Romokalisari Industri Raya 1 No. 35 Surabaya",PT. Master Mat Pengampon,Tidak ada ulasan,Gagal,Gagal,Gagal,Gagal,-7.2478886,112.7468907,Tutup,· Tutup Sel pukul 05.00,· Pengampon Square F-22Jl · Pengampon Square F-22Jl,"MASTER MAT INDONESIA, JL. Romokalisari Industri Raya 1 No. 35 Surabaya",Tidak Ditemukan
16808274,"MIRADO ABADI, JL.BANYU URIP 312",Mirado Abadi,Toko Jam,"4,7"," Jl. Arjuno No.148B, Sawahan, Kec. Sawahan, Surabaya, Jawa Timur 60251",Gagal,Gagal,-7.2678958,112.7282001,Aktif,· Tutup pukul 16.00,Gagal,"MIRADO ABADI, JL.BANYU URIP 312",Ditemukan
16808486,"READY MIX, PT/SCG READYMIX INDONESIA, Jl. Raya Sukomanunggal Jaya 2 H/Dupak Rukun Tambak Mayor 1",Armada Mix Surabaya,Perusahaan Konstruksi,"4,4","· Ruko Town Square, Pakuwon, AA2 No.39",(031) 58259595,Gagal,-7.2764748,112.8049395,Tutup,· Tutup pukul 16.00,Buka · Tutup pukul 16.00 · Buka · Tutup pukul 16.00,"READY MIX, PT/SCG READYMIX INDONESIA, Jl. Raya Sukomanunggal Jaya 2 H/Dupak Rukun Tambak Mayor 1",Ditemukan
16808486,"READY MIX, PT/SCG READYMIX INDONESIA, Jl. Raya Sukomanunggal Jaya 2 H/Dupak Rukun Tambak Mayor 1",CARMIX Indonesia PT. Artha Nugraha,Pemasok Semen Ready-mix,"4,6",· Jl. Jemursari VIII No.102,Gagal,Gagal,-7.319722,112.739714,Tutup,· Tutup pukul 17.00,Buka · Tutup pukul 17.00 · Buka · Tutup pukul 17.00,"READY MIX, PT/SCG READYMIX INDONESIA, Jl. Raya Sukomanunggal Jaya 2 H/Dupak Rukun Tambak Mayor 1",Tidak Ditemukan
16808486,"READY MIX, PT/SCG READYMIX INDONESIA, Jl. Raya Sukomanunggal Jaya 2 H/Dupak Rukun Tambak Mayor 1",Merak Jaya Group - Head Office,Pemasok Semen Ready-mix,"3,9",· Jl. Barata Jaya No.38,(031) 5042034,Gagal,-7.2989863,112.7581572,Tutup,· Tutup pukul 16.00,Buka · Tutup pukul 16.00 · Buka · Tutup pukul 16.00,"READY MIX, PT/SCG READYMIX INDONESIA, Jl. Raya Sukomanunggal Jaya 2 H/Dupak Rukun Tambak Mayor 1",Tidak Ditemukan
16808486,"READY MIX, PT/SCG READYMIX INDONESIA, Jl. Raya Sukomanunggal Jaya 2 H/Dupak Rukun Tambak Mayor 1",PT Varia Usaha Beton,Pemasok Semen Ready-mix,"4,6","· The Royal Business Park, Jl. H. Anwar Hamzah No.F03 Blok F02",(031) 99841300,Gagal,-7.3482988,112.7991721,Tutup,· Tutup pukul 16.30,"· The Royal Business Park, Jl. H. Anwar Hamzah No.F03 Blok F02 · The Royal Business Park, Jl. H. Anwar Hamzah No.F03 Blok F02","READY MIX, PT/SCG READYMIX INDONESIA, Jl. Raya Sukomanunggal Jaya 2 H/Dupak Rukun Tambak Mayor 1",Tidak Ditemukan
16808486,"READY MIX, PT/SCG READYMIX INDONESIA, Jl. Raya Sukomanunggal Jaya 2 H/Dupak Rukun Tambak Mayor 1",Lintas Bangun Persada Jaya. PT,Pemasok Semen Ready-mix,"4,4","· PQVJ+WVV, Jl. Dr. Ir. H. Soekarno",(031) 3824806,Gagal,-7.2551294,112.7821851,Tutup,· Tutup pukul 16.30,Buka · Tutup pukul 16.30 · Buka · Tutup pukul 16.30,"READY MIX, PT/SCG READYMIX INDONESIA, Jl. Raya Sukomanunggal Jaya 2 H/Dupak Rukun Tambak Mayor 1",Tidak Ditemukan
16808531,"SAHABAT EVERVAN SEJAHTERA, PT, Jl. Kedung Cowek No 353,",PT. Sahabat Evervan Sejahtera,Kantor Perusahaan,"4,4"," Jl. Kedung Cowek No.353, Tanah Kali Kedinding, Kec. Kenjeran, Surabaya, Jawa Timur 60129",Gagal,Gagal,-7.2258126,112.7749673,Aktif,· Tutup pukul 17.00,Gagal,"SAHABAT EVERVAN SEJAHTERA, PT, Jl. Kedung Cowek No 353,",Ditemukan
16808548,"SAMUDRA PERKASA, JL. SUKO SEMOLO TENGAH II/Q-30 RT 004 RW 011",Samudra perkasa,Jasa Kontainer,"4,7",· Stand Jl. Bumi Moro No.14,Gagal,Gagal,-7.22478,112.72292,Aktif,Gagal,Gagal,"SAMUDRA PERKASA, JL. SUKO SEMOLO TENGAH II/Q-30 RT 004 RW 011",Ditemukan
16808548,"SAMUDRA PERKASA, JL. SUKO SEMOLO TENGAH II/Q-30 RT 004 RW 011",PT. Citra Samudra Perkasa,Jasa Konstruksi dan Bangunan,"4,3",· Jl. Medokan Sawah Timur VII-B No.2,0822-3333-4149,Gagal,-7.3296439,112.8063931,Tutup,· Tutup pukul 16.00,Buka · Tutup pukul 16.00 · Buka · Tutup pukul 16.00,"SAMUDRA PERKASA, JL. SUKO SEMOLO TENGAH II/Q-30 RT 004 RW 011",Tidak Ditemukan
16808582,"SATRIA UTAMA ABADI, JL. KEDUNG DORO NOMOR 112-F",Satria Utama Makmur. UD,Tidak ada ulasan,Gagal,"· Jl. Kedung Doro No.A-10 36, RT.001/RW.10",(031) 5463072,Gagal,-7.2615902,112.731525,Tutup Permanen,Tutup permanen,Gagal,"SATRIA UTAMA ABADI, JL. KEDUNG DORO NOMOR 112-F",Ditemukan
16808582,"SATRIA UTAMA ABADI, JL. KEDUNG DORO NOMOR 112-F",Mega Jaya Abadi Motor,Toko Suku Cadang Mobil,"4,5",· Jl. Kedung Doro No.117,0877-8557-7117,Gagal,-7.262218,112.73181,Tutup,· Tutup pukul 16.30,Buka · Tutup pukul 16.30 · Buka · Tutup pukul 16.30,"SATRIA UTAMA ABADI, JL. KEDUNG DORO NOMOR 112-F",Tidak Ditemukan
16808582,"SATRIA UTAMA ABADI, JL. KEDUNG DORO NOMOR 112-F",CV. Karunia Abadi,Toko Suku Cadang Mobil,"4,3",· Jl. Kedung Doro No.36-46 Blok C8,(031) 5451450,Gagal,-7.2625697,112.7312549,Tutup,· Tutup pukul 17.00,Buka · Tutup pukul 17.00 · Buka · Tutup pukul 17.00,"SATRIA UTAMA ABADI, JL. KEDUNG DORO NOMOR 112-F",Tidak Ditemukan
16808582,"SATRIA UTAMA ABADI, JL. KEDUNG DORO NOMOR 112-F",Toko Sparepart Mobil ( Lima Tiga Motor ),Toko Suku Cadang Mobil,"4,2",· Jl. Kedung Doro No.153-I,0851-0170-6153,Gagal,-7.2639741,112.7311372,Tutup,· Tutup pukul 16.00,Buka · Tutup pukul 16.00 · Buka · Tutup pukul 16.00,"SATRIA UTAMA ABADI, JL. KEDUNG DORO NOMOR 112-F",Tidak Ditemukan
16808582,"SATRIA UTAMA ABADI, JL. KEDUNG DORO NOMOR 112-F",PETI MATI ARIO,Bersponsor,"4,8",· No.94 - 96 Jalan Dinoyo,(031) 5619000,Gagal,-7.285065,112.745553,Aktif,Buka 24 jam,Buka 24 jam · Buka 24 jam,"SATRIA UTAMA ABADI, JL. KEDUNG DORO NOMOR 112-F",Tidak Ditemukan
16808601,"SEMERU MULYA IMANI, Jalan Raya Bumi Maspion III Nomor 5 Kawasan Industri dan Pergudangan Bumi Maspion",Semeru Teknik,Gudang,"4,3"," Pergudangan Bumi Maspion, Jl. Romokalisari Industri Raya 3 No.5, Romokalisari, Benowo, East Java 60192",Gagal,http://www.semeruteknik.com/,-7.2029273,112.638004,Aktif,· Tutup pukul 16.30,Gagal,"SEMERU MULYA IMANI, Jalan Raya Bumi Maspion III Nomor 5 Kawasan Industri dan Pergudangan Bumi Maspion",Ditemukan
16808602,"SEMERU TEKNIK, Romokalisari Industri Raya III/12",Semeru Teknik,Gudang,"4,3"," Pergudangan Bumi Maspion, Jl. Romokalisari Industri Raya 3 No.5, Romokalisari, Benowo, East Java 60192",Gagal,http://www.semeruteknik.com/,-7.2029273,112.638004,Aktif,· Tutup pukul 16.30,Gagal,"SEMERU TEKNIK, Romokalisari Industri Raya III/12",Ditemukan
16808724,"SUMBER NUSANTARA ADITYA PRATAMA, Jl. Margomulyo Indahl Blok H-11","PT. Sumber Nusantara Aditya Pratama - Workshop - Cut Fill , Rental Alat Berat , Kontraktor",Kontraktor,"4,5"," Jl. Margomulyo Indah No.11 Blok H, Buntaran, Tandes, Surabaya, East Java 60184",Gagal,http://www.sumbernusantara.com/,-7.2430525,112.6673015,Aktif,· Tutup pukul 17.00,Gagal,"SUMBER NUSANTARA ADITYA PRATAMA, Jl. Margomulyo Indahl Blok H-11",Ditemukan
16808754,"SURABAYA SORE, Jl. Simomulyo II No.1",Puskesmas Simomulyo,Pusat Kesehatan Masyarakat,"4,2",· Jl. Gumuk Bogo No.1,(031) 5312201,Gagal,-7.2624387,112.7117684,Tutup,· Tutup pukul 16.30,Buka · Tutup pukul 16.30 · Buka · Tutup pukul 16.30,"SURABAYA SORE, Jl. Simomulyo II No.1",Ditemukan
16808754,"SURABAYA SORE, Jl. Simomulyo II No.1",Pasar Rukun Simomulyo,Pasar,"4,4",· Jl. Simo Mulyo No.61,Gagal,Gagal,-7.2663247,112.7118803,Aktif,Buka sekarang,Gagal,"SURABAYA SORE, Jl. Simomulyo II No.1",Tidak Ditemukan
16808754,"SURABAYA SORE, Jl. Simomulyo II No.1",Pagi Sore Surabaya @Embong Sawo,Restoran,"4,6",· Jl. Embong Sawo No.1,0811-3080-1973,Gagal,-7.2671275,112.7419904,Tutup,· Tutup pukul 22.00,Buka · Tutup pukul 22.00 · Buka · Tutup pukul 22.00,"SURABAYA SORE, Jl. Simomulyo II No.1",Tidak Ditemukan
16808754,"SURABAYA SORE, Jl. Simomulyo II No.1",Masakan Padang Salero Bundo,Padang,"4,3",· Jl. Simo Pomahan I No.20A,0812-5940-0211,Gagal,-7.2663941,112.7070022,Tutup,· Tutup pukul 23.00,Buka · Tutup pukul 23.00 · Buka · Tutup pukul 23.00,"SURABAYA SORE, Jl. Simomulyo II No.1",Tidak Ditemukan
16808754,"SURABAYA SORE, Jl. Simomulyo II No.1",SDN SIMOMULYO I SURABAYA,Tidak ada ulasan,Gagal,· Jl. Simo Tambaan Sekolahan No.56,Gagal,Gagal,-7.2706363,112.7050693,Tutup,· Tutup pukul 17.30,· Jl. Simo Tambaan Sekolahan No.56 · Jl. Simo Tambaan Sekolahan No.56,"SURABAYA SORE, Jl. Simomulyo II No.1",Tidak Ditemukan
16808772,"SURYA MEDIKAL SERVIS, Jl. Nginden Intan Timur VII/37 (Blok++E3/10)",PT. Surya Medikal Servis,Kantor Perusahaan,"5,0"," Jl. Nginden Intan Tim. VII No.37, Nginden Jangkungan, Kec. Sukolilo, Surabaya, Jawa Timur 60118",Gagal,http://kalibrasisms.com/,-7.3050303,112.7720409,Aktif,· Tutup pukul 16.30,Gagal,"SURYA MEDIKAL SERVIS, Jl. Nginden Intan Timur VII/37 (Blok++E3/10)",Ditemukan
16808785,"SURYAMAS SUKSES SELALU, Jl Romokalisari I/32",Surya Sukses Gemilang,Toko Lampu,"4,5",· Jl. Undaan Kulon No.113A,0812-1936-6113,Gagal,-7.2488731,112.7461132,Tutup,· Tutup pukul 17.00,Buka · Tutup pukul 17.00 · Buka · Tutup pukul 17.00,"SURYAMAS SUKSES SELALU, Jl Romokalisari I/32",Ditemukan
16808785,"SURYAMAS SUKSES SELALU, Jl Romokalisari I/32",PT. Suryamas Megah Steel,Pabrik Baja,"4,3",· Jl. Greges Barat No.59,(031) 7483350,Gagal,-7.2299292,112.6813951,Tutup,· Tutup pukul 16.00,Buka · Tutup pukul 16.00 · Buka · Tutup pukul 16.00,"SURYAMAS SUKSES SELALU, Jl Romokalisari I/32",Tidak Ditemukan
16808785,"SURYAMAS SUKSES SELALU, Jl Romokalisari I/32",SUKSES GRUP,Tidak ada ulasan,Gagal,· Jl. Romokalisari Industri Raya I No.32,(031) 3991717,Gagal,-7.1993759,112.6413883,Aktif,Buka sekarang,Gagal,"SURYAMAS SUKSES SELALU, Jl Romokalisari I/32",Tidak Ditemukan
16808785,"SURYAMAS SUKSES SELALU, Jl Romokalisari I/32",PT. Megasurya Mas,Produsen,"4,2",· Jl. Tambak Sawah No.32,(031) 8662390,Gagal,-7.3585374,112.7763216,Tutup,· Tutup pukul 17.00,· Jl. Tambak Sawah No.32 · Jl. Tambak Sawah No.32,"SURYAMAS SUKSES SELALU, Jl Romokalisari I/32",Tidak Ditemukan
16808785,"SURYAMAS SUKSES SELALU, Jl Romokalisari I/32",PT. Sukses Mekar Abadi,Distributor Baja,"4,8","· Pergudangan Bumi Maspion, Jl. Raya Maspion Romokalisari I, Komplek Exit Tol Romokalisari No.28-32",(031) 3991717,Gagal,-7.1990497,112.6409933,Tutup,· Tutup pukul 16.30,Buka · Tutup pukul 16.30 · Buka · Tutup pukul 16.30,"SURYAMAS SUKSES SELALU, Jl Romokalisari I/32",Tidak Ditemukan
16808818,"TEKNIKA IPALINDO, JL.PENJARINGAN ASRI XVI PS.I.C 8 RT 002 RW 006 SURABAYA",Teknika Ipalindo,Tidak ada ulasan,Gagal,Jl. Wiguna Timur VI No.4,Gagal,Gagal,-7.3368926,112.8020745,Tutup Permanen,Tutup permanen,Gagal,"TEKNIKA IPALINDO, JL.PENJARINGAN ASRI XVI PS.I.C 8 RT 002 RW 006 SURABAYA",Ditemukan
16808818,"TEKNIKA IPALINDO, JL.PENJARINGAN ASRI XVI PS.I.C 8 RT 002 RW 006 SURABAYA",Griya Kencana Ayu,Layanan penyewaan gaun pernikahan,"4,5","· PS I, Jl. Penjaringan Asri XVI No.16-17 Blok C",Gagal,Gagal,-7.3249265,112.7852213,Aktif,Tutup,Tutup · Buka Sel pukul 10.00 · Tutup · Buka Sel pukul 10.00,"TEKNIKA IPALINDO, JL.PENJARINGAN ASRI XVI PS.I.C 8 RT 002 RW 006 SURABAYA",Tidak Ditemukan
16808818,"TEKNIKA IPALINDO, JL.PENJARINGAN ASRI XVI PS.I.C 8 RT 002 RW 006 SURABAYA",Taqindo Karya. - IPAL ( Instalasi Pengolahan Air Limbah ),Layanan Pengelolaan Limbah,"4,4",· Jalan Bumi Jl. Marina Emas Barat IV No.8,0813-5740-4469,Gagal,-7.2931081,112.8025862,Tutup,· Tutup pukul 16.00,Buka · Tutup pukul 16.00 · Buka · Tutup pukul 16.00,"TEKNIKA IPALINDO, JL.PENJARINGAN ASRI XVI PS.I.C 8 RT 002 RW 006 SURABAYA",Tidak Ditemukan
16808818,"TEKNIKA IPALINDO, JL.PENJARINGAN ASRI XVI PS.I.C 8 RT 002 RW 006 SURABAYA",INTI IPAL TEKNIK GROUP,Tidak ada ulasan,Gagal,· Manyar sedati agung II No.8-10 RT/RW.06/03,0813-5788-7060,Gagal,-7.3785165,112.7560132,Aktif,Gagal,Gagal,"TEKNIKA IPALINDO, JL.PENJARINGAN ASRI XVI PS.I.C 8 RT 002 RW 006 SURABAYA",Tidak Ditemukan
16808818,"TEKNIKA IPALINDO, JL.PENJARINGAN ASRI XVI PS.I.C 8 RT 002 RW 006 SURABAYA",PT. BIO TEKNOLOGI SURABAYA,Kantor Perusahaan,"5,0",· Jl. Medayu Selatan IV No.51,0854-8555-4965,Gagal,-7.3317367,112.7986918,Tutup,· Tutup pukul 16.00,Buka · Tutup pukul 16.00 · Buka · Tutup pukul 16.00,"TEKNIKA IPALINDO, JL.PENJARINGAN ASRI XVI PS.I.C 8 RT 002 RW 006 SURABAYA",Tidak Ditemukan
16808824,"TEMPO UTAMA SEJAHTERA, Jalan Gresik 1,3, 5, Kel. Kemayoran, Kec. Krembangan, Kota Surabaya, Provinsi Jawa Timur",PT. Tempo Surabaya,Kantor Perusahaan,"4,3"," Jl. Gresik No.1-3-5, RT.1/RW.4, Kemayoran, Kec. Krembangan, Surabaya, Jawa Timur 60176",Gagal,Gagal,-7.233043,112.7277662,Aktif,Gagal,Gagal,"TEMPO UTAMA SEJAHTERA, Jalan Gresik 1,3, 5, Kel. Kemayoran, Kec. Krembangan, Kota Surabaya, Provinsi Jawa Timur",Ditemukan
16808848,"TJANDI DJAJA MULTITECH, JALAN GRESIK NOMOR 18",Tjandi Djaja Multitech,Bengkel Mobil,"4,2"," JL. Gresik, No. 18 RT. 008 RW. 001, Kendangsari, Tenggilis Mejoyo, Perak Bar., Kec. Krembangan, Surabaya, Jawa Timur 60292",Gagal,Gagal,-7.2330315,112.726645,Aktif,Gagal,Gagal,"TJANDI DJAJA MULTITECH, JALAN GRESIK NOMOR 18",Ditemukan
16808867,"TRI MATRA JAYA, JALAN KENCANASARI TIMUR XI no. 94-95, Desa/Kelurahan Gunung Sari, Kec. Dukuh Pakis",PT TRIMATRA JAYA PERSADA,Perusahaan Konstruksi,"5,0",· Jl. Kayu Putih Raya No.23,(021) 29575024,Gagal,-6.1860201,106.8908787,Tutup,· Tutup pukul 18.00,Buka · Tutup pukul 18.00 · Buka · Tutup pukul 18.00,"TRI MATRA JAYA, JALAN KENCANASARI TIMUR XI no. 94-95, Desa/Kelurahan Gunung Sari, Kec. Dukuh Pakis",Ditemukan
16808867,"TRI MATRA JAYA, JALAN KENCANASARI TIMUR XI no. 94-95, Desa/Kelurahan Gunung Sari, Kec. Dukuh Pakis",Asuransi Tri Pakarta. PT - Surabaya Kusumabangsa,Pusat Bisnis,"4,8",· Jl. Taman Kusuma Bangsa No.2,(031) 5473040,Gagal,-7.2525871,112.7483794,Aktif,Buka sekarang,· Jl. Taman Kusuma Bangsa No.2 · Jl. Taman Kusuma Bangsa No.2,"TRI MATRA JAYA, JALAN KENCANASARI TIMUR XI no. 94-95, Desa/Kelurahan Gunung Sari, Kec. Dukuh Pakis",Tidak Ditemukan
16808867,"TRI MATRA JAYA, JALAN KENCANASARI TIMUR XI no. 94-95, Desa/Kelurahan Gunung Sari, Kec. Dukuh Pakis",PT DETIGA Inti Teknik Sinergi,Kantor Perusahaan,"4,2",· Jl. Kendang Sari VII No.7,(031) 99848279,Gagal,-7.3233256,112.7436372,Tutup,· Tutup pukul 17.00,Buka · Tutup pukul 17.00 · Buka · Tutup pukul 17.00,"TRI MATRA JAYA, JALAN KENCANASARI TIMUR XI no. 94-95, Desa/Kelurahan Gunung Sari, Kec. Dukuh Pakis",Tidak Ditemukan
16808867,"TRI MATRA JAYA, JALAN KENCANASARI TIMUR XI no. 94-95, Desa/Kelurahan Gunung Sari, Kec. Dukuh Pakis",Trimitra Sejati Jaya,Toko Percetakan,"4,1","· JP99+FFG Pergudangan, Jl. Muncul",(031) 8549555,Gagal,-7.3813057,112.7187061,Tutup,· Tutup pukul 16.00,Buka · Tutup pukul 16.00 · Buka · Tutup pukul 16.00,"TRI MATRA JAYA, JALAN KENCANASARI TIMUR XI no. 94-95, Desa/Kelurahan Gunung Sari, Kec. Dukuh Pakis",Tidak Ditemukan
16808899,"UNIVERSAL ENERGY PRATAMA, JL. ROMOKALISARI INDUSTRI RAYA NO 22",Universal Energy Pratama. PT,Pemasok Peralatan Industri,"1,0","· Jalan Majapahit No.58-A, RT.002/RW.13",(031) 5015672,Gagal,-7.282274,112.740004,Aktif,Buka sekarang,Gagal,"UNIVERSAL ENERGY PRATAMA, JL. ROMOKALISARI INDUSTRI RAYA NO 22",Ditemukan
16808899,"UNIVERSAL ENERGY PRATAMA, JL. ROMOKALISARI INDUSTRI RAYA NO 22",SUKSES GRUP,Tidak ada ulasan,Gagal,· Jl. Romokalisari Industri Raya I No.32,(031) 3991717,Gagal,-7.1993759,112.6413883,Aktif,Buka sekarang,Gagal,"UNIVERSAL ENERGY PRATAMA, JL. ROMOKALISARI INDUSTRI RAYA NO 22",Tidak Ditemukan
16808899,"UNIVERSAL ENERGY PRATAMA, JL. ROMOKALISARI INDUSTRI RAYA NO 22",Semeru Teknik,Gudang,"4,3","· Pergudangan Bumi Maspion, Jl. Romokalisari Industri Raya 3 No.5",Gagal,Gagal,-7.2029273,112.638004,Tutup,· Tutup pukul 16.30,Buka · Tutup pukul 16.30 · Buka · Tutup pukul 16.30,"UNIVERSAL ENERGY PRATAMA, JL. ROMOKALISARI INDUSTRI RAYA NO 22",Tidak Ditemukan
16808910,"UTOMO JURAGAN ATAP SURYA INDONESIA, Jalan Rungkut Industri III No.21",Juragan Atap Surabaya,Toko Perlengkapan Atap,"4,7",· Jl. Rungkut Kidul I No.28,0815-5542-1945,Gagal,-7.3283854,112.7703707,Tutup,· Tutup pukul 19.00,Buka · Tutup pukul 19.00 · Buka · Tutup pukul 19.00,"UTOMO JURAGAN ATAP SURYA INDONESIA, Jalan Rungkut Industri III No.21",Ditemukan
16808910,"UTOMO JURAGAN ATAP SURYA INDONESIA, Jalan Rungkut Industri III No.21",PT Utomo Deck,Perusahaan Konstruksi,"4,5",· Jl. Rungkut Industri III No.21,(031) 8438121,Gagal,-7.3351871,112.7537953,Tutup,· Tutup pukul 16.00,Buka · Tutup pukul 16.00 · Buka · Tutup pukul 16.00,"UTOMO JURAGAN ATAP SURYA INDONESIA, Jalan Rungkut Industri III No.21",Tidak Ditemukan
16808910,"UTOMO JURAGAN ATAP SURYA INDONESIA, Jalan Rungkut Industri III No.21",UTOMO Solar UV,Perusahaan tenaga surya,"4,4",· Jl. Basuki Rahmat No.149,0819-0116-6000,Gagal,-7.272705,112.742322,Tutup,· Tutup pukul 16.00,Buka · Tutup pukul 16.00 · Buka · Tutup pukul 16.00,"UTOMO JURAGAN ATAP SURYA INDONESIA, Jalan Rungkut Industri III No.21",Tidak Ditemukan
16808920,"VISINIAGA MITRA KREASINDO, Jalan Semut Baru",PT. Visiniaga Mitra Kreasindo,Layanan Keamanan Komputer,"4,6"," Blok F Ruko Pengampon Square No.26, Bongkaran, Kec. Pabean Cantikan, Surabaya, Jawa Timur 60161",Gagal,https://www.visiniaga.com/,-7.2443114,112.7460939,Aktif,· Tutup pukul 17.00,Gagal,"VISINIAGA MITRA KREASINDO, Jalan Semut Baru",Ditemukan
16808930,"WARDHANI, Jalan Bagong Ginayan 1/26 - A",Cv. Wardhani (Bp. Heri/ B. Rima),Komplek perumahan,Gagal," Bagong Ginayan I No.26 A, RT.005/RW.05, Ngagel, Kec. Wonokromo, Surabaya, Jawa Timur 60246",Gagal,Gagal,-7.2791928,112.7474284,Aktif,Gagal,Gagal,"WARDHANI, Jalan Bagong Ginayan 1/26 - A",Ditemukan
16817797,"Tira Austenite Tbk, Kawasan SIER, Jl. Brebek Industri V No. 17, Brebek",PT Tira Austenite Tbk,Pabrik Baja,"5,0"," Jl. Berbek Industri V No.17, Bebek, Berbek, Kec. Waru, Kabupaten Sidoarjo, Jawa Timur 61256",Gagal,http://www.tiraaustenite.com/,-7.344458,112.760753,Aktif,· Tutup pukul 16.00,Gagal,"Tira Austenite Tbk, Kawasan SIER, Jl. Brebek Industri V No. 17, Brebek",Ditemukan
16818088,"Sinar Bintang Mulia, PT, Jl. Tanjung Sari no 73-74",PT. Sinar Bintang Mulia(PT. SBM),Gudang,"5,0"," Jl. Tj. Sari No.73-75, Asem Rowo, Kec. Asem Rowo, Surabaya, Jawa Timur 60182",Gagal,Gagal,-7.2533776,112.7070992,Aktif,· Tutup pukul 17.00,Gagal,"Sinar Bintang Mulia, PT, Jl. Tanjung Sari no 73-74",Ditemukan
16818089,"Steel Pipe Industry Of Indonesia Tbk, PT, DS. Warugunung -Kec. Karangpilang, Surabaya","PT. Steel Pipe Industry Of Indonesia, Tbk",Kantor Perusahaan,"4,4",· Jalan Raya No.10,Gagal,Gagal,-7.4439982,112.6898407,Tutup,· Tutup pukul 16.00,Buka · Tutup pukul 16.00 · Buka · Tutup pukul 16.00,"Steel Pipe Industry Of Indonesia Tbk, PT, DS. Warugunung -Kec. Karangpilang, Surabaya",Ditemukan
16818089,"Steel Pipe Industry Of Indonesia Tbk, PT, DS. Warugunung -Kec. Karangpilang, Surabaya",PT. Steel Pipe Industry Of Indonesia,Pabrik Baja,"4,6",· Jl. Raya Rungkut Industri II No.10,(031) 8439555,Gagal,-7.3251644,112.7593968,Tutup,· Tutup pukul 16.30,Buka · Tutup pukul 16.30 · Buka · Tutup pukul 16.30,"Steel Pipe Industry Of Indonesia Tbk, PT, DS. Warugunung -Kec. Karangpilang, Surabaya",Tidak Ditemukan
16818089,"Steel Pipe Industry Of Indonesia Tbk, PT, DS. Warugunung -Kec. Karangpilang, Surabaya",SPINDO (Steel Pipe Industry Of Indonesia Tbk ) - Head office,Produsen,"4,4",· Jl. Kalibutuh No.189-191,(031) 5320320,Gagal,-7.2548297,112.7191936,Tutup,· Tutup pukul 17.00,Buka · Tutup pukul 17.00 · Buka · Tutup pukul 17.00,"Steel Pipe Industry Of Indonesia Tbk, PT, DS. Warugunung -Kec. Karangpilang, Surabaya",Tidak Ditemukan
16818089,"Steel Pipe Industry Of Indonesia Tbk, PT, DS. Warugunung -Kec. Karangpilang, Surabaya",Pt. Spindo I,Pemasok Pipa,"4,2",· Jl. Rungkut Industri I No.28,(031) 8439503,Gagal,-7.3277084,112.7612294,Tutup,· Tutup pukul 16.30,Buka · Tutup pukul 16.30 · Buka · Tutup pukul 16.30,"Steel Pipe Industry Of Indonesia Tbk, PT, DS. Warugunung -Kec. Karangpilang, Surabaya",Tidak Ditemukan
16818089,"Steel Pipe Industry Of Indonesia Tbk, PT, DS. Warugunung -Kec. Karangpilang, Surabaya",PT. Spindo,Perusahaan Konstruksi,"4,0",· Jl. Raya Mastrip No.860,(031) 7663719,Gagal,-7.3499935,112.6718847,Tutup,· Tutup pukul 16.00,Buka · Tutup pukul 16.00 · Buka · Tutup pukul 16.00,"Steel Pipe Industry Of Indonesia Tbk, PT, DS. Warugunung -Kec. Karangpilang, Surabaya",Tidak Ditemukan
201150,"ULTRA PRIMA ABADI, PT, PANJANG JIWO 48-50 , JL, SURABAYA",PT Ultra Prima Abadi,Toko Permen,"4,4"," Jl. Panjang Jiwo No.48-50, Panjang Jiwo, Kec. Tenggilis Mejoyo, Surabaya, Jawa Timur 60299",Gagal,Gagal,-7.3095474,112.7669219,Aktif,Gagal,Gagal,"ULTRA PRIMA ABADI, PT, PANJANG JIWO 48-50 , JL, SURABAYA",Ditemukan
2499165,"YOSO MAKMUR, Jalan Bratang Gede III C NO. 8A",Jl. Bratang Gede III C No.8,Tidak ada ulasan,Gagal,"RT.001/RW.07, Ngagelrejo",Gagal,Gagal,-7.2991815,112.754501,Aktif,Gagal,Gagal,"YOSO MAKMUR, Jalan Bratang Gede III C NO. 8A",Ditemukan
2513818,"PISON ALAM RAYA, JL. JEMUR ANDAYANI KAV. 50 RUKO SURYA INTI PERMATA, SIWALANKERTO",Ruko Surya Inti Permata (Siwalankerto),Tidak ada ulasan,Gagal,Jl. Jemur Andayani Blok F No.8,Gagal,Gagal,-7.3323048,112.7402002,Aktif,Gagal,Gagal,"PISON ALAM RAYA, JL. JEMUR ANDAYANI KAV. 50 RUKO SURYA INTI PERMATA, SIWALANKERTO",Ditemukan
2513818,"PISON ALAM RAYA, JL. JEMUR ANDAYANI KAV. 50 RUKO SURYA INTI PERMATA, SIWALANKERTO",RUKO SURYA INTI PERMATA,Kantor Perusahaan,"3,7",· Jl. Jemur Andayani No.50,Gagal,Gagal,-7.3297196,112.7412593,Aktif,Gagal,Gagal,"PISON ALAM RAYA, JL. JEMUR ANDAYANI KAV. 50 RUKO SURYA INTI PERMATA, SIWALANKERTO",Tidak Ditemukan
2513818,"PISON ALAM RAYA, JL. JEMUR ANDAYANI KAV. 50 RUKO SURYA INTI PERMATA, SIWALANKERTO",Alam Raya,ALAM RAYA,"4,0",Jl. Krembangan Timur No.26,Gagal,Gagal,-7.2362379,112.7345525,Aktif,Gagal,Gagal,"PISON ALAM RAYA, JL. JEMUR ANDAYANI KAV. 50 RUKO SURYA INTI PERMATA, SIWALANKERTO",Tidak Ditemukan
2514645,"CHRISTINA JAYA MOTOR, PT, Jl. Made Utara No. 29 Sambikerep",CV. Christina Jaya Motor,Bengkel Hidrolik,"4,6"," Jl. Raya Made No.29, Made, Kec. Sambikerep, Surabaya, Jawa Timur 60219",Gagal,https://christinajayamotor.web.id/,-7.2739264,112.6368755,Aktif,· Tutup pukul 17.00,Gagal,"CHRISTINA JAYA MOTOR, PT, Jl. Made Utara No. 29 Sambikerep",Ditemukan
2518539,"TALIMAS BAJA MANDIRI, Komplek Pergudangan Osowilangun Permai Blok C-11",Talimas Baja Mandiri,Kantor Perusahaan,"4,1"," QMG3+4W2, Tambak Osowilangun, Kec. Benowo, Surabaya, Jawa Timur 60191",Gagal,https://talimas.co.id/,-7.2247441,112.6547548,Aktif,· Tutup pukul 17.00,Gagal,"TALIMAS BAJA MANDIRI, Komplek Pergudangan Osowilangun Permai Blok C-11",Ditemukan
2519563,"KARUNIA SUKRON JAYA, JL DUKUH KALIKENDAL",Crossline Karunia Jaya - Apex Filter Udara Racing,Toko Suku Cadang Mobil,Gagal," Jl. Songoyudan No.91, Nyamplungan, Kec. Pabean Cantikan, Surabaya, Jawa Timur 60162",Gagal,https://www.tokopedia.com/crossline,-7.2345797,112.7421787,Aktif,· Tutup pukul 16.00,Gagal,"KARUNIA SUKRON JAYA, JL DUKUH KALIKENDAL",Ditemukan
2537753,"RAGAM MULYA ABADI, UD, Jl. Raya Menganti Jeruk 296 A,",Ragam Mulya Abadi,Kantor Perusahaan,"4,8",· Jl. Raya Jeruk No.296,0817-5137-321,Gagal,-7.3047953,112.6380781,Tutup,· Tutup pukul 16.00,Buka · Tutup pukul 16.00 · Buka · Tutup pukul 16.00,"RAGAM MULYA ABADI, UD, Jl. Raya Menganti Jeruk 296 A,",Ditemukan
2537753,"RAGAM MULYA ABADI, UD, Jl. Raya Menganti Jeruk 296 A,",PT. RAGAM MULYA ABADI,Kantor Perusahaan,"4,1",· Jl. Raya Randegansari No.35,(031) 7532042,Gagal,-7.3066441,112.6358177,Tutup,· Tutup pukul 04.00,Buka · Tutup pukul 04.00 · Buka · Tutup pukul 04.00,"RAGAM MULYA ABADI, UD, Jl. Raya Menganti Jeruk 296 A,",Tidak Ditemukan
2555760,"SEMANGGI INDONESIA, JL.KENDUNG NO.50, SEMEMI",Semanggi Yu Tini,Toko Makanan,"5,0",· Jl. Kendung Jl. Kendung Rejo Gg. IX No.37,0856-4878-4577,Gagal,-7.2599145,112.6372139,Tutup,· Tutup pukul 18.00,Buka · Tutup pukul 18.00 · Buka · Tutup pukul 18.00,"SEMANGGI INDONESIA, JL.KENDUNG NO.50, SEMEMI",Ditemukan
2555760,"SEMANGGI INDONESIA, JL.KENDUNG NO.50, SEMEMI",Kampoeng Semanggi,Pasokan Pabrik Makanan,"4,7",· Jl. Kendung IX,0856-4878-4577,Gagal,-7.2598005,112.6347973,Aktif,Buka 24 jam,Buka 24 jam · Buka 24 jam,"SEMANGGI INDONESIA, JL.KENDUNG NO.50, SEMEMI",Tidak Ditemukan
2555760,"SEMANGGI INDONESIA, JL.KENDUNG NO.50, SEMEMI",Dapur Semanggi Aqilla,Toko Makanan,"5,0","· Kendung Gg. III, RT.02/RW.03",0857-4975-4707,Gagal,-7.2582634,112.6380625,Aktif,Gagal,Gagal,"SEMANGGI INDONESIA, JL.KENDUNG NO.50, SEMEMI",Tidak Ditemukan
2555760,"SEMANGGI INDONESIA, JL.KENDUNG NO.50, SEMEMI",Semanggi Surabaya Ibu Suwati,Restoran,"5,0","· Ruko Galeria, Jl. Alas Malang No. 173, AD No.26 RB 5",Gagal,Gagal,-7.2615057,112.6345409,Tutup,· Tutup pukul 16.00,Buka · Tutup pukul 16.00 · Buka · Tutup pukul 16.00,"SEMANGGI INDONESIA, JL.KENDUNG NO.50, SEMEMI",Tidak Ditemukan
2555760,"SEMANGGI INDONESIA, JL.KENDUNG NO.50, SEMEMI",Gedung Mekar Semanggi,Tempat acara,"3,9",· Jl. Kendung IX No.26,Gagal,Gagal,-7.259576,112.635269,Aktif,Gagal,Gagal,"SEMANGGI INDONESIA, JL.KENDUNG NO.50, SEMEMI",Tidak Ditemukan
2564182,"EMKA PUTRA PRATAMA, GEDUNG RAMAYANA THR MALL JL KUSUMA BANGSA",THR Mall Surabaya,Pusat Pameran dan Perdagangan,"3,9",· Jl. Kusuma Bangsa No.116,Gagal,Gagal,-7.2522871,112.7504965,Aktif,· Tutup pukul 18.00,Buka · Tutup pukul 18.00 · Buka · Tutup pukul 18.00,"EMKA PUTRA PRATAMA, GEDUNG RAMAYANA THR MALL JL KUSUMA BANGSA",Ditemukan
2564182,"EMKA PUTRA PRATAMA, GEDUNG RAMAYANA THR MALL JL KUSUMA BANGSA",PT EMKA,Tidak ada ulasan,Gagal,· Jl. Sidoyoso 3 No.36,Gagal,Gagal,-7.2355374,112.7594542,Aktif,Gagal,Gagal,"EMKA PUTRA PRATAMA, GEDUNG RAMAYANA THR MALL JL KUSUMA BANGSA",Tidak Ditemukan
2571744,"ARTAKIMIA KARUNIA ABADI, Ciputra World, Jl. Mayjen Sungkono No.89 27th Floor, Gunung Sari, Dukuhpakis, Surabaya, East Java 60224",PT. Karunia Rejeki Abadi (PT. KAREA),Kantor Perusahaan,"5,0","· Jl. Mayjen Sungkono No.75, RW.78",(031) 5680828,Gagal,-7.2924017,112.7243107,Tutup,· Tutup pukul 18.00,Buka · Tutup pukul 18.00 · Buka · Tutup pukul 18.00,"ARTAKIMIA KARUNIA ABADI, Ciputra World, Jl. Mayjen Sungkono No.89 27th Floor, Gunung Sari, Dukuhpakis, Surabaya, East Java 60224",Ditemukan
2571744,"ARTAKIMIA KARUNIA ABADI, Ciputra World, Jl. Mayjen Sungkono No.89 27th Floor, Gunung Sari, Dukuhpakis, Surabaya, East Java 60224",Ciputra World Surabaya,Pusat Perbelanjaan,"4,6",· Jl. Mayjen Sungkono No.89,(031) 51200088,Gagal,-7.2926468,112.720121,Tutup,· Tutup pukul 22.00,Buka · Tutup pukul 22.00 · Buka · Tutup pukul 22.00,"ARTAKIMIA KARUNIA ABADI, Ciputra World, Jl. Mayjen Sungkono No.89 27th Floor, Gunung Sari, Dukuhpakis, Surabaya, East Java 60224",Tidak Ditemukan
2571744,"ARTAKIMIA KARUNIA ABADI, Ciputra World, Jl. Mayjen Sungkono No.89 27th Floor, Gunung Sari, Dukuhpakis, Surabaya, East Java 60224",PT. KARUNIA ABADI INDONESIA,Kantor Perusahaan,"5,0","· Dukuh Kupang Tim. VII No.36, RT.003/RW.08",(031) 51201143,Gagal,-7.282516,112.719056,Tutup,· Tutup pukul 16.00,Buka · Tutup pukul 16.00 · Buka · Tutup pukul 16.00,"ARTAKIMIA KARUNIA ABADI, Ciputra World, Jl. Mayjen Sungkono No.89 27th Floor, Gunung Sari, Dukuhpakis, Surabaya, East Java 60224",Tidak Ditemukan
2571744,"ARTAKIMIA KARUNIA ABADI, Ciputra World, Jl. Mayjen Sungkono No.89 27th Floor, Gunung Sari, Dukuhpakis, Surabaya, East Java 60224",Marketing Gallery Ciputra World Surabaya,Pengembang Realestat,"4,1","· next to Metro Dept. Store, Ciputra World, Ground Floor Mal, Jl. Mayjen Sungkono No.87-89",0888-0806-0888,Gagal,-7.2923061,112.7191552,Tutup,· Tutup pukul 22.00,Buka · Tutup pukul 22.00 · Buka · Tutup pukul 22.00,"ARTAKIMIA KARUNIA ABADI, Ciputra World, Jl. Mayjen Sungkono No.89 27th Floor, Gunung Sari, Dukuhpakis, Surabaya, East Java 60224",Tidak Ditemukan
2585790,"STAR NICE, PT, Jl. Manukan Wetan No.60/A-2",AX Aluminium Surabaya,Pemasok Aluminium,"4,9"," Jl. Raya Manukan Wetan No.60 B-20, Manukan Wetan, Tandes, Surabaya, East Java 60185",Gagal,https://mpg.co.id/,-7.2571829,112.6698385,Aktif,· Tutup pukul 16.00,Gagal,"STAR NICE, PT, Jl. Manukan Wetan No.60/A-2",Ditemukan
258739,"DOK PERKAPALAN SURABAYA, PT <PERSERO>, JL. TANJUNG PERAK BARAT 435, SURABAYA",PT Dok Dan Perkapalan Surabaya,Galangan Kapal,"4,3"," Jl. Perak Bar. No.433-435, Perak Utara, Kec. Pabean Cantikan, Surabaya, Jawa Timur 60165",Gagal,https://www.doksurabaya.id/,-7.2017829,112.730093,Aktif,· Tutup pukul 17.00,Gagal,"DOK PERKAPALAN SURABAYA, PT <PERSERO>, JL. TANJUNG PERAK BARAT 435, SURABAYA",Ditemukan
2724703,"SEPATU TEKNOLOGI INDONESIA, JALAN MANYAR KARTIKA 1/52",TTRacing Official Surabaya,Bersponsor,"5,0",· No.73 Lantai Dasar Jalan Ahmad Yani,0899-7879-788,Gagal,-7.315316,112.736124,Tutup,· Tutup pukul 19.00,Buka · Tutup pukul 19.00 · Buka · Tutup pukul 19.00,"SEPATU TEKNOLOGI INDONESIA, JALAN MANYAR KARTIKA 1/52",Ditemukan
2724703,"SEPATU TEKNOLOGI INDONESIA, JALAN MANYAR KARTIKA 1/52",sneakerzone surabaya,Toko Sepatu,"4,9",· Jl. Raya Nginden No.15,0821-1604-0506,Gagal,-7.3004324,112.7622775,Tutup,· Tutup pukul 21.30,Buka · Tutup pukul 21.30 · Buka · Tutup pukul 21.30,"SEPATU TEKNOLOGI INDONESIA, JALAN MANYAR KARTIKA 1/52",Tidak Ditemukan
2724703,"SEPATU TEKNOLOGI INDONESIA, JALAN MANYAR KARTIKA 1/52",TOPSCORE SURABAYA - TOKO SEPATU OLAHRAGA TERLENGKAP DI SURABAYA,Toko Sepatu,"5,0","· Regency 20, Ruko Manyar garden, Jl. Nginden Semolo No.105",0881-8377-998,Gagal,-7.2998193,112.7717302,Tutup,· Tutup pukul 22.00,Buka · Tutup pukul 22.00 · Buka · Tutup pukul 22.00,"SEPATU TEKNOLOGI INDONESIA, JALAN MANYAR KARTIKA 1/52",Tidak Ditemukan
2724703,"SEPATU TEKNOLOGI INDONESIA, JALAN MANYAR KARTIKA 1/52","USAFE (Distributor Sepatu Safety Cheetah, Safety Jogger dan Perlengkapan Safety)",Toko Sepatu,"4,7",· Jalan Nginden Intan Raya 10A Ruko B2-16,0821-4209-3077,Gagal,-7.3068907,112.768827,Tutup,· Tutup pukul 17.00,Buka · Tutup pukul 17.00 · Buka · Tutup pukul 17.00,"SEPATU TEKNOLOGI INDONESIA, JALAN MANYAR KARTIKA 1/52",Tidak Ditemukan
2724703,"SEPATU TEKNOLOGI INDONESIA, JALAN MANYAR KARTIKA 1/52",SNEAKERS ZONE SURABAYA,Toko Sepatu,"4,0",· Jl. Biliton No.43A,0852-3600-8357,Gagal,-7.274002,112.7499618,Tutup,· Tutup pukul 22.00,Buka · Tutup pukul 22.00 · Buka · Tutup pukul 22.00,"SEPATU TEKNOLOGI INDONESIA, JALAN MANYAR KARTIKA 1/52",Tidak Ditemukan
2733755,"INDUSTRI LIFTINDO NUSANTARA, Jl. Raya Manukan 60 Blok E-3",INDUSTRI LIFTINDO NUSANTARA,Tidak ada ulasan,Gagal,"· No.60 Blok E3, Jl. Raya Manukan Kulon No.60 Blok E3",Gagal,Gagal,-7.2546717,112.6702495,Tutup,· Tutup pukul 16.00,Buka · Tutup pukul 16.00 · Buka · Tutup pukul 16.00,"INDUSTRI LIFTINDO NUSANTARA, Jl. Raya Manukan 60 Blok E-3",Ditemukan
2733755,"INDUSTRI LIFTINDO NUSANTARA, Jl. Raya Manukan 60 Blok E-3",Lift dan Escalator,Pabrikan lift,"5,0",· Jl. Raya Manukan Kulon No.60 Blok E-3,(031) 7418687,Gagal,-7.2546718,112.6702494,Tutup,· Tutup pukul 16.00,Buka · Tutup pukul 16.00 · Buka · Tutup pukul 16.00,"INDUSTRI LIFTINDO NUSANTARA, Jl. Raya Manukan 60 Blok E-3",Tidak Ditemukan
2747069,"JAYA PUTRA MULTIGUNA, Komplek Pertokoan Mangga Dua Blok B-8 No. 3 Jl. Jagir Wonokromo No. 100",PT. Jaya Putra Multiguna,Kontraktor Umum,"5,0"," Ruko Mangga Dua, Jl. Jagir Wonokromo No.3 Blok B8, Jagir, Kec. Wonokromo, Surabaya, Jawa Timur 60244",Gagal,https://www.jayaputramultiguna.id/,-7.3038626,112.7439831,Aktif,· Tutup pukul 17.00,Gagal,"JAYA PUTRA MULTIGUNA, Komplek Pertokoan Mangga Dua Blok B-8 No. 3 Jl. Jagir Wonokromo No. 100",Ditemukan
2756424,"AMAK FIRDAUS UTOMO, JL. DIPONEGORO",Amak Firdaus Utomo. PT,Toko Bahan Bangunan,"4,7"," JL. P Diponegoro No.199, DR. Soetomo, Kec. Tegalsari, Surabaya, Jawa Timur 60264",Gagal,Gagal,-7.2857956,112.7345401,Aktif,· Tutup pukul 17.00,Gagal,"AMAK FIRDAUS UTOMO, JL. DIPONEGORO",Ditemukan
2771998,"SARANA REKONDISI INDONESIA, JL RAYA TAMBAK OSOWILANGUN NO.61 KOMPLEK PERGUDANGAN OSOWILANGUN PERMAI BLOK B NO.1",PT. SARANA REKONDISI INDONESIA,Kantor Perusahaan,"4,7"," No. 61 Blok B, Jl. Tambak Osowilangun No.1, Tambak Osowilangun, Kec. Benowo, Surabaya, Jawa Timur 60191",Gagal,Gagal,-7.2231186,112.6572341,Aktif,· Buka Sel pukul 09.00,Gagal,"SARANA REKONDISI INDONESIA, JL RAYA TAMBAK OSOWILANGUN NO.61 KOMPLEK PERGUDANGAN OSOWILANGUN PERMAI BLOK B NO.1",Ditemukan
2776172,"RODA LENTERA ALAMI, JL GAYUNG KEBONSARI MANUNGGAL",Lentera Asia,Pusat Tenaga Kerja,Gagal," Jl. Gayung Kebonsari No.34, Gayungan, Kec. Gayungan, Surabaya, Jawa Timur 60235",Gagal,Gagal,-7.3292554,112.7231802,Aktif,Gagal,Gagal,"RODA LENTERA ALAMI, JL GAYUNG KEBONSARI MANUNGGAL",Ditemukan
2786497,"ANUGERAH NAWWIS NUSANTARA, PENJARINAGN TIMUR XV, PERUM PANDUGO 1",Nawwis Wedding Ring: Produsen Cincin Kawin Terpercaya,Toko Perhiasan,"4,9"," Metropolis Apartment, Jl. Raya Tenggilis No.127 Ruko MSA-105, Tenggilis Mejoyo, Kec. Tenggilis Mejoyo, Surabaya, Jawa Timur 60292",Gagal,http://nawwisjewelry.com/,-7.3199479,112.758814,Aktif,· Tutup pukul 19.00,Gagal,"ANUGERAH NAWWIS NUSANTARA, PENJARINAGN TIMUR XV, PERUM PANDUGO 1",Ditemukan
2807975,"ULTIMA DESAIN OTOMOTIF, JL KEPUTIH TEGAL",Jl. Keputih Tegal,Tidak ada ulasan,Gagal,Kec. Sukolilo,Gagal,Gagal,-7.2925081,112.8017902,Aktif,Gagal,Gagal,"ULTIMA DESAIN OTOMOTIF, JL KEPUTIH TEGAL",Ditemukan
2816089,"TERA ARTHA PERDANA, JL. GALAXI KLAMPIS ASRI UTARA X BLOK A-4/31",Klampis Ngasem,Tidak ada ulasan,Gagal,Kec. Sukolilo,Gagal,Gagal,-7.2877157,112.7777795,Aktif,Gagal,Gagal,"TERA ARTHA PERDANA, JL. GALAXI KLAMPIS ASRI UTARA X BLOK A-4/31",Ditemukan
2816089,"TERA ARTHA PERDANA, JL. GALAXI KLAMPIS ASRI UTARA X BLOK A-4/31",Klampis,Tidak ada ulasan,Gagal,Kec. Klampis,Gagal,Gagal,-6.926103,112.884399,Aktif,Gagal,Gagal,"TERA ARTHA PERDANA, JL. GALAXI KLAMPIS ASRI UTARA X BLOK A-4/31",Tidak Ditemukan
2831133,"SUPER LAMINDO, Jl. Tanjungsari 44/B-11",Lamindo Laminasi Pergudangan Tanjungsari 44 Blok B- 11,Jasa Laminasi,"4,5"," Simomulyo, Kec. Sukomanunggal, Surabaya, Jawa Timur 60281",Gagal,Gagal,-7.2571911,112.7034497,Aktif,· Tutup pukul 16.00,Gagal,"SUPER LAMINDO, Jl. Tanjungsari 44/B-11",Ditemukan
2838401,"SUKSES INDAH METALINDO, Margomulyo 44, Komp. Pergudangan Surimulya Blok ii No. 14 - 15",PT Sukses Indah Metalindo (Surabaya),Pabrik Baja,"5,0"," margomulyo 44,pergudangan suri mulia ii 14-15, Asem Rowo, Kec. Asem Rowo, Surabaya, Jawa Timur 60186",Gagal,Gagal,-7.2398048,112.6971195,Aktif,· Tutup pukul 16.00,Gagal,"SUKSES INDAH METALINDO, Margomulyo 44, Komp. Pergudangan Surimulya Blok ii No. 14 - 15",Ditemukan
2841556,"ASIA KOSMETIK JAYA, JL MULYOSARI TENGAH NO. 97B",MEGAH INDAH KOSMETIK,Toko Kosmetik,"4,7",· Jl. Kupang Gn. Timur IV-B No.42,0838-5468-4042,Gagal,-7.2811006,112.7233013,Tutup,· Tutup pukul 21.00,Buka · Tutup pukul 21.00 · Buka · Tutup pukul 21.00,"ASIA KOSMETIK JAYA, JL MULYOSARI TENGAH NO. 97B",Ditemukan
2841556,"ASIA KOSMETIK JAYA, JL MULYOSARI TENGAH NO. 97B",UD Megah Jaya,Toko Kosmetik,"4,6",· Jl. Pengampon No.57,(031) 3534838,Gagal,-7.2469017,112.7472557,Tutup,· Tutup pukul 17.00,· Jl. Pengampon No.57 · Jl. Pengampon No.57,"ASIA KOSMETIK JAYA, JL MULYOSARI TENGAH NO. 97B",Tidak Ditemukan
2841556,"ASIA KOSMETIK JAYA, JL MULYOSARI TENGAH NO. 97B",Akj Aesthetic Center,Klinik Perawatan Kulit,"4,7","· Mulyosari, Jl. Raya Mulyosari Blok PEE-11",0877-0304-1660,Gagal,-7.2605043,112.7953163,Tutup,· Tutup pukul 20.00,Buka · Tutup pukul 20.00 · Buka · Tutup pukul 20.00,"ASIA KOSMETIK JAYA, JL MULYOSARI TENGAH NO. 97B",Tidak Ditemukan
2841556,"ASIA KOSMETIK JAYA, JL MULYOSARI TENGAH NO. 97B","Jaya Mandiri, CV. - Retail, Distributor, Import & Export, Surabaya, Jawa Timur",Toko Kosmetik,"5,0","· Jl. Kembang Jepun No.127-M, RT.002/RW.01",0857-0498-6119,Gagal,-7.2378554,112.7400711,Tutup,· Tutup pukul 16.00,Buka · Tutup pukul 16.00 · Buka · Tutup pukul 16.00,"ASIA KOSMETIK JAYA, JL MULYOSARI TENGAH NO. 97B",Tidak Ditemukan
2842116,"SEMESTA JAYA ABADI, Komp. Pergudangan Margomulyo Jaya Blok C-28 (Lama : Jl.Sentong Asri Blok C-28)",PT SEMESTA JAYA ABADI BLOK C28,Gudang,Gagal," Lama :, Komp. PERGUDANGAN MARGOMULYO JAYA, Jl. Sentong Asri Blok C-28, Bibis, Kec. Tandes, Surabaya, Jawa Timur 60186",Gagal,Gagal,-7.2521459,112.6760363,Aktif,Gagal,Gagal,"SEMESTA JAYA ABADI, Komp. Pergudangan Margomulyo Jaya Blok C-28 (Lama : Jl.Sentong Asri Blok C-28)",Ditemukan
2849105,"Cahaya Pelangi Indosukses, JL. KYAI TAMBAK DERES 75",Jl. Kyai Tambak Deres No.75,Tidak ada ulasan,Gagal,Kec. Bulak,Gagal,Gagal,-7.2321499,112.778947,Aktif,Gagal,JL. KYAI TAMBAK DERES 75 · JL. KYAI TAMBAK DERES 75,"Cahaya Pelangi Indosukses, JL. KYAI TAMBAK DERES 75",Ditemukan
2861524,"MEKABOX INTERNATIONAL, JL KUPANG BARU",PT. Mekabox International,Distributor Kertas,"4,3",Gagal,(0321) 6815788,Gagal,-7.5121192,112.5988959,Tutup,· Tutup pukul 16.00,Buka · Tutup pukul 16.00 · Buka · Tutup pukul 16.00,"MEKABOX INTERNATIONAL, JL KUPANG BARU",Ditemukan
2861524,"MEKABOX INTERNATIONAL, JL KUPANG BARU",Surabaya Meka Box. PT,Pemasok Peralatan Industri,"3,0",· Jl. Kemayoran Baru No.86,(031) 3523746,Gagal,-7.2421825,112.7297603,Tutup,· Tutup pukul 16.00,Buka · Tutup pukul 16.00 · Buka · Tutup pukul 16.00,"MEKABOX INTERNATIONAL, JL KUPANG BARU",Tidak Ditemukan
2861524,"MEKABOX INTERNATIONAL, JL KUPANG BARU",PT. Surabaya Mekabox,Pabrik Kertas,"3,6",· Jl. Raya Bambe No.KM. 18,(031) 7507266,Gagal,-7.353712,112.6571148,Tutup,· Tutup pukul 16.00,· Jl. Raya Bambe No.KM. 18 · Jl. Raya Bambe No.KM. 18,"MEKABOX INTERNATIONAL, JL KUPANG BARU",Tidak Ditemukan
2882148,"ANTABOGA MANUNGGAL KARSA, PT, Jl. Pattimura - Ruko Plaza Segi Delapan Kav. C-810",PT. ANTABOGA MANUNGGAL KARSA,Layanan Distribusi,"4,2"," Ruko Plasa Segi 8, Jl. Pattimura Kav C 810, Sonokwijenan, Kec. Sukomanunggal, Surabaya, Jawa Timur 60189",Gagal,http://www.antabogamk.indonetwork.co.id/,-7.275257,112.696076,Aktif,· Tutup pukul 16.00,Gagal,"ANTABOGA MANUNGGAL KARSA, PT, Jl. Pattimura - Ruko Plaza Segi Delapan Kav. C-810",Ditemukan
2889677,"GOLDEN EYE KREATIFINDO, KOMPLEK KLAMPIS MEGAH",Ruko Klampis Megah,Pusat Bisnis,"4,3",· Jalan Klampis Megah Blok A No.31,Gagal,Gagal,-7.2844386,112.7772159,Tutup,· Tutup pukul 18.00,· Jalan Klampis Megah Blok A No.31 · Jalan Klampis Megah Blok A No.31,"GOLDEN EYE KREATIFINDO, KOMPLEK KLAMPIS MEGAH",Ditemukan
2889677,"GOLDEN EYE KREATIFINDO, KOMPLEK KLAMPIS MEGAH",Dealkan Property Klampis,Konsultan Realestat,"5,0",· Jl. Klampis Jaya No.33L,0822-2173-7303,Gagal,-7.2840961,112.7762728,Aktif,Gagal,· Jl. Klampis Jaya No.33L · Jl. Klampis Jaya No.33L,"GOLDEN EYE KREATIFINDO, KOMPLEK KLAMPIS MEGAH",Tidak Ditemukan
2889677,"GOLDEN EYE KREATIFINDO, KOMPLEK KLAMPIS MEGAH",Remaja Klampis,Toko Swalayan,"4,4",· Jl. Klampis Jaya,(031) 5996662,Gagal,-7.2853449,112.7760322,Tutup,· Tutup pukul 22.00,Buka · Tutup pukul 22.00 · Buka · Tutup pukul 22.00,"GOLDEN EYE KREATIFINDO, KOMPLEK KLAMPIS MEGAH",Tidak Ditemukan
2889677,"GOLDEN EYE KREATIFINDO, KOMPLEK KLAMPIS MEGAH",Dealkan Property Klampis,Agen Properti Komersial,"5,0","· Blok 33L, Ruko Klampis Jaya, Jl. Klampis Jaya Lantai 3",0822-2173-7303,Gagal,-7.2840135,112.7762911,Tutup,· Tutup pukul 17.00,"· Blok 33L, Ruko Klampis Jaya, Jl. Klampis Jaya Lantai 3 · Blok 33L, Ruko Klampis Jaya, Jl. Klampis Jaya Lantai 3","GOLDEN EYE KREATIFINDO, KOMPLEK KLAMPIS MEGAH",Tidak Ditemukan
2889677,"GOLDEN EYE KREATIFINDO, KOMPLEK KLAMPIS MEGAH",Sparks Sports Academy - Surabaya Klampis,Sekolah Olahraga,"5,0","· No.3E-3G, Jl. Klampis Jaya No.RT.05, RW.02",0813-9000-6606,Gagal,-7.2887937,112.7752516,Tutup,· Tutup pukul 18.00,"· No.3E-3G, Jl. Klampis Jaya No.RT.05, RW.02 · No.3E-3G, Jl. Klampis Jaya No.RT.05, RW.02","GOLDEN EYE KREATIFINDO, KOMPLEK KLAMPIS MEGAH",Tidak Ditemukan
2896446,"CHANDRA INDO GARMEN, TUNJUNGAN PLAZA IV RUANG UNIT 2.16-2.17 JL EMBONG MALANG",Tunjungan Plaza 6,Pusat Perbelanjaan,"4,8",· Jl. Embong Malang No.32-36,(031) 5311088,Gagal,-7.2623705,112.7384407,Tutup,· Tutup pukul 22.00,Buka · Tutup pukul 22.00 · Buka · Tutup pukul 22.00,"CHANDRA INDO GARMEN, TUNJUNGAN PLAZA IV RUANG UNIT 2.16-2.17 JL EMBONG MALANG",Ditemukan
2896446,"CHANDRA INDO GARMEN, TUNJUNGAN PLAZA IV RUANG UNIT 2.16-2.17 JL EMBONG MALANG",Chandra Indo Garmen PT,Pedagang tekstil,"3,8","· Jl. Kenjeran No.134, RW.06",(031) 3736255,Gagal,-7.243701,112.76202,Tutup,· Tutup pukul 17.00,Buka · Tutup pukul 17.00 · Buka · Tutup pukul 17.00,"CHANDRA INDO GARMEN, TUNJUNGAN PLAZA IV RUANG UNIT 2.16-2.17 JL EMBONG MALANG",Tidak Ditemukan
2896446,"CHANDRA INDO GARMEN, TUNJUNGAN PLAZA IV RUANG UNIT 2.16-2.17 JL EMBONG MALANG",PT CHANDRA INDO GARMEN,Tidak ada ulasan,Gagal,· Grand city Surabaya level 2 no 38,0813-3138-1188,Gagal,-7.2615886,112.7504172,Tutup,· Tutup pukul 15.00,Buka · Tutup pukul 15.00 · Buka · Tutup pukul 15.00,"CHANDRA INDO GARMEN, TUNJUNGAN PLAZA IV RUANG UNIT 2.16-2.17 JL EMBONG MALANG",Tidak Ditemukan
2896446,"CHANDRA INDO GARMEN, TUNJUNGAN PLAZA IV RUANG UNIT 2.16-2.17 JL EMBONG MALANG",Tunjungan Plaza 4,Pusat Perbelanjaan,"4,8",· Jl. Basuki Rahmat No.8012,Gagal,Gagal,-7.2617114,112.7391075,Tutup,· Tutup pukul 22.00,Buka · Tutup pukul 22.00 · Buka · Tutup pukul 22.00,"CHANDRA INDO GARMEN, TUNJUNGAN PLAZA IV RUANG UNIT 2.16-2.17 JL EMBONG MALANG",Tidak Ditemukan
2896446,"CHANDRA INDO GARMEN, TUNJUNGAN PLAZA IV RUANG UNIT 2.16-2.17 JL EMBONG MALANG",Tunjungan Plaza,Pusat Perbelanjaan,"4,7","· Tunjungan plaza, Jl. Jenderal Basuki Rachmat No.8-12 lantai 5",(031) 5311088,Gagal,-7.2631711,112.7400711,Tutup,· Tutup pukul 22.00,Buka · Tutup pukul 22.00 · Buka · Tutup pukul 22.00,"CHANDRA INDO GARMEN, TUNJUNGAN PLAZA IV RUANG UNIT 2.16-2.17 JL EMBONG MALANG",Tidak Ditemukan
2915160,"MAN ENERGY SOLUTIONS INDONESIA, JL MARGOMULYO 44",Jl. Margomulyo No.44,Tidak ada ulasan,Gagal,Kec. Tandes,Gagal,Gagal,-7.2392998,112.6863767,Aktif,Gagal,Gagal,"MAN ENERGY SOLUTIONS INDONESIA, JL MARGOMULYO 44",Ditemukan
2915160,"MAN ENERGY SOLUTIONS INDONESIA, JL MARGOMULYO 44",Jl. Pergudangan Suri Mulia Blok OO-31 No.44,Tidak ada ulasan,Gagal,"RT.000/RW.00, Asem Rowo",Gagal,Gagal,-7.2406968,112.7018998,Aktif,Gagal,Gagal,"MAN ENERGY SOLUTIONS INDONESIA, JL MARGOMULYO 44",Tidak Ditemukan
2924546,"REMAJA PRATAMA ENGINEERING, JL.TANJUNGSARI NO. NO 17, TANJUNGSARI",Pt. Remaja Prima Engineering,Toko Aksesori Truk,"4,5",· Jl. Tanjungsari No.18,(031) 7481000,Gagal,-7.2573628,112.6982141,Tutup,· Tutup pukul 17.00,Buka · Tutup pukul 17.00 · Buka · Tutup pukul 17.00,"REMAJA PRATAMA ENGINEERING, JL.TANJUNGSARI NO. NO 17, TANJUNGSARI",Ditemukan
2924546,"REMAJA PRATAMA ENGINEERING, JL.TANJUNGSARI NO. NO 17, TANJUNGSARI",CV. Remaja Prima Engineering,Tidak ada ulasan,Gagal,· Jl. Tanjungsari No.16B,(031) 7483000,Gagal,-7.2566819,112.6993783,Aktif,Gagal,Gagal,"REMAJA PRATAMA ENGINEERING, JL.TANJUNGSARI NO. NO 17, TANJUNGSARI",Tidak Ditemukan
2985475,"Sepanjang Agung Industri, PT, JL.MASTRIP NO. 400 (LAMA JL. RAYA KEBRAON NO. 224)",PT. Sepanjang Agung Industri,Produsen,"4,0"," Jl. Raya Mastrip No.224, Kebraon, Kec. Karangpilang, Surabaya, Jawa Timur 60222",Gagal,http://sepanjangagung.com/,-7.338529,112.6996757,Aktif,· Tutup pukul 16.00,Gagal,"Sepanjang Agung Industri, PT, JL.MASTRIP NO. 400 (LAMA JL. RAYA KEBRAON NO. 224)",Ditemukan
2989938,"VICTORIA ASIA JAYA MULIA, KEDUNG COWEK NO.161, KEDUNG COWEK",Victoria Jewellery,Tidak ada ulasan,Gagal,Jl. Kenjeran No.2,0813-8049-2626,Gagal,-7.24681,112.780902,Aktif,Gagal,Gagal,"VICTORIA ASIA JAYA MULIA, KEDUNG COWEK NO.161, KEDUNG COWEK",Ditemukan
2989938,"VICTORIA ASIA JAYA MULIA, KEDUNG COWEK NO.161, KEDUNG COWEK",Victori Diponegoro. PT,Gagal,"4,0","Jl. Diponegoro No.100, RT.002/RW.15",(031) 561611,Gagal,-7.2850831,112.7343821,Aktif,Gagal,Gagal,"VICTORIA ASIA JAYA MULIA, KEDUNG COWEK NO.161, KEDUNG COWEK",Tidak Ditemukan
2989938,"VICTORIA ASIA JAYA MULIA, KEDUNG COWEK NO.161, KEDUNG COWEK",PT Victory International Futures,Kantor Perusahaan,"4,4","· Mas Building, Jl. Diponegoro No.153 Lantai 1",(031) 5671200,Gagal,-7.283369,112.7323922,Tutup,· Tutup pukul 17.00,Buka · Tutup pukul 17.00 · Buka · Tutup pukul 17.00,"VICTORIA ASIA JAYA MULIA, KEDUNG COWEK NO.161, KEDUNG COWEK",Tidak Ditemukan
2989938,"VICTORIA ASIA JAYA MULIA, KEDUNG COWEK NO.161, KEDUNG COWEK",Victoria Furnicenter BG Junction Toko Kasur Surabaya Comforta Therapedic Spring Air King Koil Serta Florence Terdekat,Toko Kasur,"4,8","· BG Junction Lantai L1 (Dekat SIM Corner, Samping Ace Hardaware, Jl. Bubutan No.1-7",0813-2677-7076,Gagal,-7.2547747,112.7330784,Tutup,· Tutup pukul 21.00,"· BG Junction Lantai L1 (Dekat SIM Corner, Samping Ace Hardaware, Jl. Bubutan No.1-7 · BG Junction Lantai L1 (Dekat SIM Corner, Samping Ace Hardaware, Jl. Bubutan No.1-7","VICTORIA ASIA JAYA MULIA, KEDUNG COWEK NO.161, KEDUNG COWEK",Tidak Ditemukan
2989938,"VICTORIA ASIA JAYA MULIA, KEDUNG COWEK NO.161, KEDUNG COWEK",Victory International Futures Pusat,Broker keuangan,"4,9","· Pakuwon Center Superblock Tunjungan City Office Building Lt. 15 Unit 5-7 Jl. Embong Malang. 1, 3, 5",0811-3707-799,Gagal,-7.261807,112.739277,Tutup,· Tutup pukul 17.00,Buka · Tutup pukul 17.00 · Buka · Tutup pukul 17.00,"VICTORIA ASIA JAYA MULIA, KEDUNG COWEK NO.161, KEDUNG COWEK",Tidak Ditemukan
3020571,"SHADANI INSAN MULIA ABADI, GEDUNG GRAHA PENA LANTAI 9 R. 901 JALAN A. YANI",PT. Graha Pena Jawa Pos,Perusahaan Manajemen Properti,"4,6",· Jl. Ahmad Yani No.88,Gagal,Gagal,-7.320063,112.731475,Aktif,Gagal,Gagal,"SHADANI INSAN MULIA ABADI, GEDUNG GRAHA PENA LANTAI 9 R. 901 JALAN A. YANI",Ditemukan
3020644,"DHARMABUSANA ELOKSINGGASANA, JL SIDOYOSO III",Dharma Busana Elok Singgasana. PT,Pedagang tekstil,"4,8"," Jl. Sidoyoso 3 No.17, Simokerto, Kec. Simokerto, Surabaya, Jawa Timur 60143",Gagal,Gagal,-7.2377634,112.7589932,Aktif,· Tutup pukul 17.00,Gagal,"DHARMABUSANA ELOKSINGGASANA, JL SIDOYOSO III",Ditemukan
3029117,"KREASI RAGAM JAYA, KOMPLEK RUKO PENGAMPON SQUARE",PT. Ragam Jaya,Gagal,"5,0"," JL Menganti Jeruk, No. 245A, Wiyung, Surabaya, Jawa Timur 60212",Gagal,Gagal,-7.312433,112.689879,Aktif,Gagal,Gagal,"KREASI RAGAM JAYA, KOMPLEK RUKO PENGAMPON SQUARE",Ditemukan
3038692,"BAMBANG WISANG GENI, JL RAYA KUTISARI INDAH NO. 93",Jl. Raya Kutisari Indah No.93,Tidak ada ulasan,Gagal,Kec. Tenggilis Mejoyo,Gagal,Gagal,-7.3397229,112.7520026,Aktif,Gagal,Gagal,"BAMBANG WISANG GENI, JL RAYA KUTISARI INDAH NO. 93",Ditemukan
3061576,"SANJAYA AUTO PARTS, Jl. Kyai Tambak Deres 27",PT Sanjaya Auto Parts,Produsen,"4,4"," JL. Kyai Tambak Deres, No. 27, Jl. Bulak Kenjeran No.60124, Tanah Kali Kedinding, Kec. Kenjeran, Surabaya, Jawa Timur 60129",Gagal,Gagal,-7.2323988,112.7760955,Aktif,Gagal,Gagal,"SANJAYA AUTO PARTS, Jl. Kyai Tambak Deres 27",Ditemukan
3083190,"FIVE RAMS WIJAYA BICYCLEINDUSTRIES, KOMPLEK SINAR GALAXY B-66",Gundam Universal Hobby Surabaya,Toko Hobi,"4,7"," Blok Jl. Pasar Turi No.66 Blok B, Bubutan, Kec. Bubutan, Surabaya, Jawa Timur 60174",Gagal,https://www.facebook.com/unvsby/,-7.245631,112.735937,Aktif,· Tutup pukul 16.00,Gagal,"FIVE RAMS WIJAYA BICYCLEINDUSTRIES, KOMPLEK SINAR GALAXY B-66",Ditemukan
3118071,"KONTEN DIGITAL MEDIA, JALAN DARMOKALI NOMOR 3",Jasa Buat Konten Digital Komplit Videotron & Sound System Surabaya,Kantor Perusahaan,Gagal," Jl. Pakis Tirtosari VI A No.26 009, RT.009/RW.05, Pakis, Kec. Sawahan, Surabaya, Jawa Timur 60256",Gagal,Gagal,-7.2888964,112.7235163,Aktif,· Tutup pukul 17.30,Gagal,"KONTEN DIGITAL MEDIA, JALAN DARMOKALI NOMOR 3",Ditemukan
3144368,"SURYAMAS INDAH GEMILANG, JL MARGOMULYO INDAH BLOK C NO 29",Pt Surya Mas Indah Gemilang,Pabrik Plastik,"3,0"," PMVF+R9H, Manukan Wetan, Kec. Tandes, Surabaya, Jawa Timur 60185",Gagal,Gagal,-7.2554446,112.673499,Aktif,Gagal,Gagal,"SURYAMAS INDAH GEMILANG, JL MARGOMULYO INDAH BLOK C NO 29",Ditemukan
3162455,"ROYAL ORIENTAL RAPLASTEX, JL. SIMO TAMBAAN II NO. 52-54",PT. ROYAL ORIENTAL RAPLASTEX,Gagal,"3,4"," Jl. Raya Krikilan No.KM. 27,5, Dusun Krikilan, Krikilan, Kec. Driyorejo, Kabupaten Gresik, Jawa Timur 61177",Gagal,http://royalorientalraplastex.com/,-7.3769319,112.5848778,Aktif,Gagal,Gagal,"ROYAL ORIENTAL RAPLASTEX, JL. SIMO TAMBAAN II NO. 52-54",Ditemukan
3167618,"MAKMUR MARINA METALINDO, WISMA PERMAI TENGAH 1/AA-8 RT.000 RW.000, MULYOREJO",PT. Makmur Marina Metalindo,Toko Alat Kelautan,Gagal," Jl. Arief Rahman Hakim No.51, Klampis Ngasem, Kec. Sukolilo, Surabaya, Jawa Timur 60117",Gagal,http://vw-anode.com/,-7.2875692,112.7765822,Aktif,Gagal,Gagal,"MAKMUR MARINA METALINDO, WISMA PERMAI TENGAH 1/AA-8 RT.000 RW.000, MULYOREJO",Ditemukan
3171125,"HOKINDA CITRALESTARI, PT, Jl. Kalianak Barat 55 No. A1",PT. Hokinda Citralestari (hock),Tidak ada ulasan,Gagal,· Jl. Kalianak Barat No.51,Gagal,Gagal,-7.233415,112.7055675,Aktif,Gagal,Gagal,"HOKINDA CITRALESTARI, PT, Jl. Kalianak Barat 55 No. A1",Ditemukan
3171125,"HOKINDA CITRALESTARI, PT, Jl. Kalianak Barat 55 No. A1",PT Hokinda Citralestari (Hock) - Surabaya,Gudang,"4,2",· Jl. Kalianak 55 No.A1,(031) 7498652,Gagal,-7.2337371,112.7038719,Tutup,· Tutup pukul 17.00,Buka · Tutup pukul 17.00 · Buka · Tutup pukul 17.00,"HOKINDA CITRALESTARI, PT, Jl. Kalianak Barat 55 No. A1",Tidak Ditemukan
3173023,"SUMBER WIRA INDOSTEEL, Pergudangan Bumi Maspion, Jl. Romokalisari No.88, Segoromadu, Kec. Kebomas, Kabupaten Gresik, Jawa Timur 60192",PT. Sumber Wira Indosteel - Pabrik Kawat Bronjong SWIS Surabaya,Pabrik Logam,"4,5"," Pergudangan Bumi Maspion, Jl. Romokalisari No.88, Segoromadu, Kec. Kebomas, Kabupaten Gresik, Jawa Timur 60192",Gagal,https://www.bronjongswis.com/,-7.1939646,112.6403074,Aktif,· Tutup pukul 17.00,Gagal,"SUMBER WIRA INDOSTEEL, Pergudangan Bumi Maspion, Jl. Romokalisari No.88, Segoromadu, Kec. Kebomas, Kabupaten Gresik, Jawa Timur 60192",Ditemukan
3174464,"MILAGROS INDONESIA MEGAH, RUKO MANGGA DUA A",Rdc Milagros Surabaya,Kantor Perusahaan,"4,7"," No9-10, Ruko Mangga Dua, Jl. Jagir- Wonokromo No.100 Center Blok A10, Jagir, Kec. Wonokromo, Surabaya, Jawa Timur 60244",Gagal,http://www.milagros.co.id/,-7.3044508,112.7442775,Aktif,· Tutup pukul 17.00,Gagal,"MILAGROS INDONESIA MEGAH, RUKO MANGGA DUA A",Ditemukan
3178461,"MAYEKAWA INDONESIA, GEDUNG BUMI MANDIRI TOWER I LT.5 R.502B JL BASUKI RAHMAT",Gedung Bumi Mandiri,Agen Persewaan Ruang Kantor,"4,6",· Jl. Jenderal Basuki Rachmat Jl. Basuki Rahmat No.129-137 Lantai 11,(031) 5316770,Gagal,-7.2718698,112.7421418,Tutup,· Tutup pukul 18.00,Buka · Tutup pukul 18.00 · Buka · Tutup pukul 18.00,"MAYEKAWA INDONESIA, GEDUNG BUMI MANDIRI TOWER I LT.5 R.502B JL BASUKI RAHMAT",Ditemukan
3178461,"MAYEKAWA INDONESIA, GEDUNG BUMI MANDIRI TOWER I LT.5 R.502B JL BASUKI RAHMAT",PT. Mayekawa Indonesia (MYCOM),Industri Pendinginan,"5,0","· PT. MAYEKAWA INDONESIA (Surabaya Branch) Spazio Office Building, Level 7 Unit 706-707 Jl. Mayjend. Yonosoewoyo Kav.3",(031) 35973707,Gagal,-7.2898445,112.6776628,Tutup,· Tutup pukul 16.30,Buka · Tutup pukul 16.30 · Buka · Tutup pukul 16.30,"MAYEKAWA INDONESIA, GEDUNG BUMI MANDIRI TOWER I LT.5 R.502B JL BASUKI RAHMAT",Tidak Ditemukan
3182707,"TANJUNG NILAM, JL.TANJUNGSARI NO 23 RT.001 RW.002, SUKOMANUNGGAL",PT. Tanjung Tiara,Produsen,"4,2","· Jalan Tanjungsari No. 23, Tanjungsari, Sukomanunggal",Gagal,Gagal,-7.2563545,112.6994683,Tutup,· Tutup pukul 16.30,Buka · Tutup pukul 16.30 · Buka · Tutup pukul 16.30,"TANJUNG NILAM, JL.TANJUNGSARI NO 23 RT.001 RW.002, SUKOMANUNGGAL",Ditemukan
3182707,"TANJUNG NILAM, JL.TANJUNGSARI NO 23 RT.001 RW.002, SUKOMANUNGGAL",Tanjung Tiara,Produsen,"4,0",· Jl. Satelite Utara IX No.14,(031) 7322506,Gagal,-7.263511,112.6932235,Aktif,Gagal,Gagal,"TANJUNG NILAM, JL.TANJUNGSARI NO 23 RT.001 RW.002, SUKOMANUNGGAL",Tidak Ditemukan
3182707,"TANJUNG NILAM, JL.TANJUNGSARI NO 23 RT.001 RW.002, SUKOMANUNGGAL",PT TERMINAL NILAM UTARA,Layanan Logistik,"4,9","· QPX9+8C4, Jl. Nilam Barat Utara No.1",(031) 99094737,Gagal,-7.2004296,112.71817,Aktif,Buka 24 jam,"· QPX9+8C4, Jl. Nilam Barat Utara No.1 · QPX9+8C4, Jl. Nilam Barat Utara No.1","TANJUNG NILAM, JL.TANJUNGSARI NO 23 RT.001 RW.002, SUKOMANUNGGAL",Tidak Ditemukan
3182707,"TANJUNG NILAM, JL.TANJUNGSARI NO 23 RT.001 RW.002, SUKOMANUNGGAL",DSO Surabaya Barat,Kantor Perusahaan,"4,6",· Jl. Tj. Sari No.14,(031) 7481600,Gagal,-7.258615,112.696073,Tutup,· Tutup pukul 17.00,Buka · Tutup pukul 17.00 · Buka · Tutup pukul 17.00,"TANJUNG NILAM, JL.TANJUNGSARI NO 23 RT.001 RW.002, SUKOMANUNGGAL",Tidak Ditemukan
3182707,"TANJUNG NILAM, JL.TANJUNGSARI NO 23 RT.001 RW.002, SUKOMANUNGGAL",Pelabuhan Terminal Petikemas NILAM Barat,Otoritas Pelabuhan,"4,4","· QPQF+X67, Jl. Nilam Barat",(031) 32999296,Gagal,-7.2100886,112.7230572,Aktif,Buka 24 jam,"· QPQF+X67, Jl. Nilam Barat · QPQF+X67, Jl. Nilam Barat","TANJUNG NILAM, JL.TANJUNGSARI NO 23 RT.001 RW.002, SUKOMANUNGGAL",Tidak Ditemukan
3183042,"ERATEX DJAJA TBK., GEDUNG SPAZIO LT.3 GRAHA FESTIVAL KAV 3 GRAHA FAMILY JL MAYJEND YONO SOEWOYO",Eratex Djaja.PT,Produsen,"5,0"," Spazio Building 3rd Floor Unit.319-321 Graha Festival Kav.3 – Graha Family, Jl. Mayjend. Jonosewojo, Pradahkalikendal, Kec. Dukuhpakis, Surabaya, Jawa Timur 60226",Gagal,https://www.eratexco.com/,-7.2891616,112.6778327,Aktif,· Tutup pukul 17.00,Gagal,"ERATEX DJAJA TBK., GEDUNG SPAZIO LT.3 GRAHA FESTIVAL KAV 3 GRAHA FAMILY JL MAYJEND YONO SOEWOYO",Ditemukan
3185559,"PERTAMINA (PERSERO), JL JAGIR",Pertamina MOR V Jawa Timur,Kantor Pemerintah,"4,7",· Jl. Jagir Wonokromo No.88,Gagal,Gagal,-7.302118,112.7419343,Aktif,Buka sekarang,Gagal,"PERTAMINA (PERSERO), JL JAGIR",Ditemukan
3185559,"PERTAMINA (PERSERO), JL JAGIR",SPBU Pertamina 54.602.48 Jagir Wonokromo,Pom bensin/SPBU,"4,2",· Jl. Jagir Wonokromo No.88,(031) 8410025,Gagal,-7.3064949,112.7601032,Aktif,Buka 24 jam,Buka 24 jam · Buka 24 jam,"PERTAMINA (PERSERO), JL JAGIR",Tidak Ditemukan
3185559,"PERTAMINA (PERSERO), JL JAGIR",Kantor Pertamina Building Surabaya Indonesia,Perusahaan Minyak & Gas Bumi,"4,4",· Jl. Jagir Wonokromo No.88,(031) 8492400,Gagal,-7.3015068,112.7424014,Aktif,Buka 24 jam,Buka 24 jam · Buka 24 jam,"PERTAMINA (PERSERO), JL JAGIR",Tidak Ditemukan
3185689,"SUMMITAMA INTINUSA, Jl. Pahlawan No 57",Summitama Intinusa Pt,Gagal,Gagal," Jl. Pahlawan No.57, Alun-alun Contong, Kec. Bubutan, Surabaya, Jawa Timur 60174",Gagal,Gagal,-7.2487089,112.73803,Aktif,Gagal,Gagal,"SUMMITAMA INTINUSA, Jl. Pahlawan No 57",Ditemukan
3187122,"NAR STAINLESS STEEL CENTER,PT, JL. DEMAK TIMUR 7",Nar Stainless Steel Center. PT,Kantor Perusahaan,"4,4"," Jl. Demak Timur No.7, Gundih, Kec. Bubutan, Surabaya, Jawa Timur 60172",Gagal,https://narstainless.wordpress.com/,-7.2522648,112.7228366,Aktif,· Tutup pukul 17.00,Gagal,"NAR STAINLESS STEEL CENTER,PT, JL. DEMAK TIMUR 7",Ditemukan
3202576,"TRAFOINDO PRIMA PERKASA, JALAN KUTISARI",PT. Trafoindo Prima Perkasa,Produsen Alat,"5,0"," Jl. Kutisari IX No.15 A, RT.008/RW.005, Siwalankerto, Kec. Wonocolo, Surabaya, Jawa Timur 60236",Gagal,http://www.trafoindonesia.com/,-7.3311857,112.7430816,Aktif,· Tutup pukul 17.00,Gagal,"TRAFOINDO PRIMA PERKASA, JALAN KUTISARI",Ditemukan
3208078,"MULTIMEGAH INDAHJAYA, JL DUPAK XVII BLOK C NO 10 RT. 004 RW. 005 , GUNDIH",Multi Megah Indah Jaya. PT,Lembaga Keuangan,"4,8",· Jl. Raya Domas No.888,(031) 7913451,Gagal,-7.2852313,112.563388,Aktif,Buka sekarang,Gagal,"MULTIMEGAH INDAHJAYA, JL DUPAK XVII BLOK C NO 10 RT. 004 RW. 005 , GUNDIH",Ditemukan
3208078,"MULTIMEGAH INDAHJAYA, JL DUPAK XVII BLOK C NO 10 RT. 004 RW. 005 , GUNDIH",Multimegah Indah Jaya. PT,Toko Lampu,"4,7","· JL. Dupak, No. 17, Komplek Pacific Megah C-10",(031) 5473611,Gagal,-7.24496,112.7246794,Tutup Permanen,Tutup permanen,Gagal,"MULTIMEGAH INDAHJAYA, JL DUPAK XVII BLOK C NO 10 RT. 004 RW. 005 , GUNDIH",Tidak Ditemukan
3208078,"MULTIMEGAH INDAHJAYA, JL DUPAK XVII BLOK C NO 10 RT. 004 RW. 005 , GUNDIH",Multi Jaya Megah,Pemasok Peralatan Industri,"1,0","· Ruko Dreamlan, Jalan Benowo No. 6",0813-5702-7800,Gagal,-7.234732,112.612233,Aktif,Buka sekarang,"· Ruko Dreamlan, Jalan Benowo No. 6 · Ruko Dreamlan, Jalan Benowo No. 6","MULTIMEGAH INDAHJAYA, JL DUPAK XVII BLOK C NO 10 RT. 004 RW. 005 , GUNDIH",Tidak Ditemukan
3208078,"MULTIMEGAH INDAHJAYA, JL DUPAK XVII BLOK C NO 10 RT. 004 RW. 005 , GUNDIH",PT Timur Jaya Sentosa,Layanan Distribusi,"4,6",· Jl. Songoyudan No.26,(031) 3535127,Gagal,-7.236741,112.74129,Tutup,· Tutup pukul 16.30,Buka · Tutup pukul 16.30 · Buka · Tutup pukul 16.30,"MULTIMEGAH INDAHJAYA, JL DUPAK XVII BLOK C NO 10 RT. 004 RW. 005 , GUNDIH",Tidak Ditemukan
3208078,"MULTIMEGAH INDAHJAYA, JL DUPAK XVII BLOK C NO 10 RT. 004 RW. 005 , GUNDIH",Distributor Genset Surabaya - PT. Interjaya Suryamegah,Dealer Mesin Diesel,"4,3",· Jl. Rungkut Industri III No.45,0812-8888-9052,Gagal,-7.3359385,112.7615919,Tutup,· Tutup pukul 17.00,Buka · Tutup pukul 17.00 · Buka · Tutup pukul 17.00,"MULTIMEGAH INDAHJAYA, JL DUPAK XVII BLOK C NO 10 RT. 004 RW. 005 , GUNDIH",Tidak Ditemukan
3229653,"ASIAPAC MULTI SOLUSI, RAYA LONTAR",PT.Asiapac Multi Solusi,Kantor Perusahaan,"4,8",· Jl. Poros Pattene No.3,(0411) 4833888,Gagal,-5.0579941,119.5041379,Tutup,· Tutup pukul 17.00,Buka · Tutup pukul 17.00 · Buka · Tutup pukul 17.00,"ASIAPAC MULTI SOLUSI, RAYA LONTAR",Ditemukan
3229653,"ASIAPAC MULTI SOLUSI, RAYA LONTAR",MULTI SINERGY CONSULTANT,Konsultan Pajak,"5,0",· Jl. Nginden Intan Barat No.C4 nomor 72,0821-4004-1177,Gagal,-7.3059524,112.7663932,Tutup,· Tutup pukul 17.00,Buka · Tutup pukul 17.00 · Buka · Tutup pukul 17.00,"ASIAPAC MULTI SOLUSI, RAYA LONTAR",Tidak Ditemukan
3229653,"ASIAPAC MULTI SOLUSI, RAYA LONTAR",Intiland Tower Surabaya,Kantor Perusahaan,"4,4",· Jl. Panglima Sudirman No.101-103,(031) 5482722,Gagal,-7.2729074,112.7428021,Tutup,· Tutup pukul 17.00,Buka · Tutup pukul 17.00 · Buka · Tutup pukul 17.00,"ASIAPAC MULTI SOLUSI, RAYA LONTAR",Tidak Ditemukan
3233282,"ABADIKURNIA CITRARASA, Jl. Kertajaya 63, Kertajaya, Gubeng, Kota Surabaya, Jawa Timur, 60286",Abadikurnia Citrarasa. PT,Toko Roti,"4,2"," Jl. Kertajaya No.63, Airlangga, Kec. Gubeng, Surabaya, Jawa Timur 60286",Gagal,https://www.hollandbakery.co.id/grid-view/21,-7.2776055,112.7540147,Aktif,· Tutup pukul 18.00,Gagal,"ABADIKURNIA CITRARASA, Jl. Kertajaya 63, Kertajaya, Gubeng, Kota Surabaya, Jawa Timur, 60286",Ditemukan
3240038,"GUNA BANGUN JAYA, JL SIDODADI",Lemkra Surabaya (PT. Guna Bangun Jaya),Toko Bahan Bangunan,"4,4"," Jl. Karet No.46-48, Bongkaran, Kec. Pabean Cantikan, Surabaya, Jawa Timur 60161",Gagal,Gagal,-7.2394288,112.7386731,Aktif,· Tutup pukul 16.30,Gagal,"GUNA BANGUN JAYA, JL SIDODADI",Ditemukan
3256194,"YKK AP INDONESIA, GEDUNG BUMI MANDIRI TOWER I LT.6 NOMOR 606-607 JL BASUKI RACHMAD",PT.YKK AP Indonesia,Kantor,"4,6","· Japfa Indoland Center, Jl. Basuki Rahmat No.606 Lt. 6",(031) 5351800,Gagal,-7.2719565,112.7417633,Tutup,· Tutup pukul 16.30,Buka · Tutup pukul 16.30 · Buka · Tutup pukul 16.30,"YKK AP INDONESIA, GEDUNG BUMI MANDIRI TOWER I LT.6 NOMOR 606-607 JL BASUKI RACHMAD",Ditemukan
3256194,"YKK AP INDONESIA, GEDUNG BUMI MANDIRI TOWER I LT.6 NOMOR 606-607 JL BASUKI RACHMAD",Gedung Bumi Mandiri,Agen Persewaan Ruang Kantor,"4,6",· Jl. Jenderal Basuki Rachmat Jl. Basuki Rahmat No.129-137 Lantai 11,(031) 5316770,Gagal,-7.2718698,112.7421418,Tutup,· Tutup pukul 18.00,Buka · Tutup pukul 18.00 · Buka · Tutup pukul 18.00,"YKK AP INDONESIA, GEDUNG BUMI MANDIRI TOWER I LT.6 NOMOR 606-607 JL BASUKI RACHMAD",Tidak Ditemukan
3256194,"YKK AP INDONESIA, GEDUNG BUMI MANDIRI TOWER I LT.6 NOMOR 606-607 JL BASUKI RACHMAD",YKK AP Headoffice Pusat,Jendela Aluminium,"5,0",· Jl. Basuki Rahmat,0819-9803-1886,Gagal,-7.271637,112.7420847,Aktif,Buka 24 jam,Buka 24 jam · Buka 24 jam,"YKK AP INDONESIA, GEDUNG BUMI MANDIRI TOWER I LT.6 NOMOR 606-607 JL BASUKI RACHMAD",Tidak Ditemukan
3256194,"YKK AP INDONESIA, GEDUNG BUMI MANDIRI TOWER I LT.6 NOMOR 606-607 JL BASUKI RACHMAD",YKK ap KANTOR PUSAT SURABAYA aluminium kusen jepang,Tidak ada ulasan,Gagal,· Jl. Basuki Rahmat No.129b,Gagal,Gagal,-7.270724,112.74159,Aktif,Gagal,Gagal,"YKK AP INDONESIA, GEDUNG BUMI MANDIRI TOWER I LT.6 NOMOR 606-607 JL BASUKI RACHMAD",Tidak Ditemukan
3256194,"YKK AP INDONESIA, GEDUNG BUMI MANDIRI TOWER I LT.6 NOMOR 606-607 JL BASUKI RACHMAD",YKK AP headoffice,Konsultan Realestat,"5,0",· Jl. Arjuno No.23b,0823-3241-1353,Gagal,-7.2597018,112.7273708,Aktif,Buka 24 jam,Buka 24 jam · Buka 24 jam,"YKK AP INDONESIA, GEDUNG BUMI MANDIRI TOWER I LT.6 NOMOR 606-607 JL BASUKI RACHMAD",Tidak Ditemukan
3258744,"OSLE INDONESIA, Jl. Dharmahusada 78-E",OSLE INDONESIA,Layanan Hukum,"5,0"," Jl. Dharma Husada Selatan No.35, Mojo, Kec. Gubeng, Surabaya, Jawa Timur 60285",Gagal,http://osleindonesia.com/,-7.268197,112.7708,Aktif,· Tutup pukul 16.30,Gagal,"OSLE INDONESIA, Jl. Dharmahusada 78-E",Ditemukan
3278076,"Akses Mitra Prima, JL. BUMI MASPION UTARA I NO 45",SCAFFOLDING HALYSAFE (PT. Akses Mitra Prima),Kantor Perusahaan,"5,0"," Kawasan Industri & Pergudangan Bumi Maspion Jl. Bumi Maspion Utara 1 No.45, Segoromadu, Romokalisari, Kec. Benowo, Surabaya, Jawa Timur 60192",Gagal,Gagal,-7.1951852,112.642925,Aktif,· Tutup pukul 17.00,Gagal,"Akses Mitra Prima, JL. BUMI MASPION UTARA I NO 45",Ditemukan
3283849,"BON AMI ABADI, JL BABATAN PANTAI UTARA",Bon Ami Bakery Kenjeran,Toko Roti,"4,8"," Jl. Babatan Pantai Ut. No.2 / 3C blok a, Kalijudan, Mulyorejo, Surabaya, East Java 60114",Gagal,http://www.bonami.co.id/link,-7.2531724,112.7893627,Aktif,· Tutup pukul 22.00,Gagal,"BON AMI ABADI, JL BABATAN PANTAI UTARA",Ditemukan
3291031,"HARAPAN TEKNIK, JL KEDUNG SROKO",CV. Harapan Teknik,Kantor Perusahaan,"5,0"," Jl. Kedung Sroko No.26, Pacar Kembang, Kec. Tambaksari, Surabaya, Jawa Timur 60132",Gagal,Gagal,-7.2615685,112.7591808,Aktif,· Tutup pukul 18.00,Gagal,"HARAPAN TEKNIK, JL KEDUNG SROKO",Ditemukan
3301955,"HAY HASIL JAYA, JL. MANUKAN KULON 60 BLOK E-2",UD. Rejeki Jaya,Pabrikan mebel,"4,3"," Pergudangan 60, Jl. Raya Manukan Kulon No.14 Blok E, Manukan Kulon, Tandes, Surabaya, East Java 60185",Gagal,Gagal,-7.2542499,112.6682548,Aktif,Gagal,Gagal,"HAY HASIL JAYA, JL. MANUKAN KULON 60 BLOK E-2",Ditemukan
3303405,"BINTANG MAJU MAPAN, JL RAYA GEDANG ASIN",PT. BINTANG MAJU MAPAN | DISTRIBUTOR ROTAN SINTETIS | TALIKOR PLASTIK | JALI-JALI PLASTIK,Pabrik Plastik,"1,5"," Jl. Raya Tandes Lor No.3, Gedangasin, Kec. Tandes, Surabaya, Jawa Timur 60187",Gagal,Gagal,-7.2595386,112.6887003,Aktif,· Tutup pukul 17.00,Gagal,"BINTANG MAJU MAPAN, JL RAYA GEDANG ASIN",Ditemukan
3315660,"SURABAYA KENCANA ANUGRAH, JL RAYA DARMO PERMAI",PT. Surabaya Kencana Anugrah,Pabrikan ban,"4,6"," Jl. Raya Darmo Permai I No.35, Pradahkalikendal, Kec. Dukuhpakis, Surabaya, Jawa Timur 60226",Gagal,Gagal,-7.2821588,112.6953666,Aktif,· Tutup pukul 17.00,Gagal,"SURABAYA KENCANA ANUGRAH, JL RAYA DARMO PERMAI",Ditemukan
3321612,"HALUS SAJA, JL GAYUNGAN PPN",Gayungan Ptt,Kantor Perusahaan,"4,8",· Jl. Gayungan PTT No.17,Gagal,Gagal,-7.336055,112.7286493,Aktif,Buka sekarang,Gagal,"HALUS SAJA, JL GAYUNGAN PPN",Ditemukan
3321612,"HALUS SAJA, JL GAYUNGAN PPN",Jasahub.com Surabaya,Tidak ada ulasan,Gagal,· Jl. Gayungsari VIII No.02,0813-9870-5219,Gagal,-7.3333402,112.7223639,Tutup,· Tutup pukul 16.00,Buka · Tutup pukul 16.00 · Buka · Tutup pukul 16.00,"HALUS SAJA, JL GAYUNGAN PPN",Tidak Ditemukan
3321612,"HALUS SAJA, JL GAYUNGAN PPN",Gayungan komplek AD,Komplek perumahan,"4,2","· Jl. Gayungan komplek ADNo.23A, RT.008/RW.01",Gagal,Gagal,-7.3370562,112.7233724,Aktif,Gagal,Gagal,"HALUS SAJA, JL GAYUNGAN PPN",Tidak Ditemukan
3321612,"HALUS SAJA, JL GAYUNGAN PPN",Warkop STB,Kedai Kopi,"4,8",· Jl. Gayungan PTT No.27,0878-7566-7778,Gagal,-7.3360032,112.7281778,Tutup,· Tutup pukul 01.00,Buka · Tutup pukul 01.00 · Buka · Tutup pukul 01.00,"HALUS SAJA, JL GAYUNGAN PPN",Tidak Ditemukan
3323956,"DWI IVAN PANJAYA, Pergudangan Manukan Kulon 60 Blok C No 8",PT. DWI IVAN PANJAYA,Pabrik sepatu,"5,0"," PMV9+JGR, Manukan Kulon, Kec. Tandes, Surabaya, Jawa Timur 60185",Gagal,Gagal,-7.2561182,112.6686194,Aktif,· Tutup pukul 16.00,Gagal,"DWI IVAN PANJAYA, Pergudangan Manukan Kulon 60 Blok C No 8",Ditemukan
3327471,"TANJUNGSARI PRIMA SENTOSA, JL.DUMAR INDUSTRI BLOK F NO.1",PT. Tanjungsari Prima Sentosa (RIMASA),Agen Rental Crane,"4,2"," Jl. Dumar Industri No.1 Blok F, Asem Rowo, Kec. Asem Rowo, Surabaya, Jawa Timur 60182",Gagal,http://rimasa.co.id/,-7.2477147,112.6958521,Aktif,· Tutup pukul 17.00,Gagal,"TANJUNGSARI PRIMA SENTOSA, JL.DUMAR INDUSTRI BLOK F NO.1",Ditemukan
3341044,"PRIMA MEDIKA LABORATORIES, JL.MANYAR KARTIKA VII/10-16, MENUR PUMPUNGAN",AMS,Kantor Perusahaan,"4,3",· Jl. Manyar Kartika VII No.10-19,(031) 5962550,Gagal,-7.2904384,112.7661897,Aktif,Buka sekarang,Gagal,"PRIMA MEDIKA LABORATORIES, JL.MANYAR KARTIKA VII/10-16, MENUR PUMPUNGAN",Ditemukan
3341044,"PRIMA MEDIKA LABORATORIES, JL.MANYAR KARTIKA VII/10-16, MENUR PUMPUNGAN",Perima Medika,Laboratorium Medis,"4,8",· Jl. Jagiran No.78,(031) 5010154,Gagal,-7.2543761,112.7613152,Aktif,Gagal,Gagal,"PRIMA MEDIKA LABORATORIES, JL.MANYAR KARTIKA VII/10-16, MENUR PUMPUNGAN",Tidak Ditemukan
3341044,"PRIMA MEDIKA LABORATORIES, JL.MANYAR KARTIKA VII/10-16, MENUR PUMPUNGAN",Klinik Utama Prima Medika,Klinik Medis,"4,7",· Jl. Prambanan Ruko No.1F,(031) 5053032,Gagal,-7.2594094,112.7563895,Tutup,· Tutup pukul 21.00,· Jl. Prambanan Ruko No.1F · Jl. Prambanan Ruko No.1F,"PRIMA MEDIKA LABORATORIES, JL.MANYAR KARTIKA VII/10-16, MENUR PUMPUNGAN",Tidak Ditemukan
3341044,"PRIMA MEDIKA LABORATORIES, JL.MANYAR KARTIKA VII/10-16, MENUR PUMPUNGAN",Laboratorium Klinik Utama Prima,Klinik Medis,"5,0","· Jalan Udaan Wetan IV, Perak Barat, Genteng",Gagal,Gagal,-7.2574719,112.7520883,Aktif,Gagal,Gagal,"PRIMA MEDIKA LABORATORIES, JL.MANYAR KARTIKA VII/10-16, MENUR PUMPUNGAN",Tidak Ditemukan
3341044,"PRIMA MEDIKA LABORATORIES, JL.MANYAR KARTIKA VII/10-16, MENUR PUMPUNGAN",Lab. Prima,Laboratorium Medis,"4,0",· Jl. Undaan Kulon No.37,0878-5110-2710,Gagal,-7.2528455,112.7441179,Tutup,· Tutup pukul 19.00,Buka · Tutup pukul 19.00 · Buka · Tutup pukul 19.00,"PRIMA MEDIKA LABORATORIES, JL.MANYAR KARTIKA VII/10-16, MENUR PUMPUNGAN",Tidak Ditemukan
3344111,"MASTER ARTHA KHARISMA, Jl. Pakal No.1, Pakal","DAYANA FROZEN FOOD, BAHAN KUE &PLASTIK",Toko bahan makanan,Gagal," Jl. Pakal No.5, Pakal, Kec. Pakal, Surabaya, Jawa Timur 60196",Gagal,Gagal,-7.2390913,112.6219094,Tutup Sementara,Gagal,Gagal,"MASTER ARTHA KHARISMA, Jl. Pakal No.1, Pakal",Ditemukan
3356621,"ADILUHUNG SARANASEGARAINDONESIA, JL PERAK TIMUR",PT. ADILUHUNG SARANASEGARA INDONESIA,Pembuat Kapal,"4,9"," no. blok, Jl. Perak Timur No.512 A-8, Perak Utara, Kec. Pabean Cantikan, Surabaya, Jawa Timur 60165",Gagal,http://www.assishipyard.com/,-7.2026114,112.7337113,Aktif,· Tutup pukul 16.30,Gagal,"ADILUHUNG SARANASEGARAINDONESIA, JL PERAK TIMUR",Ditemukan
3362656,"TESCO INDOMARITIM, JL SABANG",PT Tesco Indomaritim,Kantor Perusahaan,"4,1"," Jl. Sabang No.17, Perak Tim., Kec. Pabean Cantikan, Surabaya, Jawa Timur 60164",Gagal,https://www.tescoindomaritim.com/,-7.232712,112.7299252,Aktif,· Tutup pukul 16.30,Gagal,"TESCO INDOMARITIM, JL SABANG",Ditemukan
3365139,"DESTINI MARINE SAFETY, JL. MARGOMULYO 46 BLOK B-66",PT. Destini Marine Safety Surabaya,Toko Alat Kelautan,"4,9"," Pergudangan Bumi Benowo, Jl. Jawar Surabaya No.Blok B7, Prambangan, Romokalisari, Benowo, Surabaya, East Java 60192",Gagal,http://www.dms-services.co.id/,-7.2036171,112.6248933,Aktif,· Tutup pukul 17.00,Gagal,"DESTINI MARINE SAFETY, JL. MARGOMULYO 46 BLOK B-66",Ditemukan
3366547,"DIAN HERBAHAL, Jl. Wonokromo No.107, Jagir, Kec. Wonokromo, Surabaya, Jawa Timur 60243",PT Dian Herbahal (WEBER),Kantor Perusahaan,"4,9"," Jl. Wonokromo No.107, Jagir, Kec. Wonokromo, Surabaya, Jawa Timur 60243",Gagal,https://weber.co.id/about-us/,-7.3038272,112.7369798,Aktif,· Tutup pukul 17.00,Gagal,"DIAN HERBAHAL, Jl. Wonokromo No.107, Jagir, Kec. Wonokromo, Surabaya, Jawa Timur 60243",Ditemukan
3372282,"DESTINI MARINE SAFETY, PERGUDANGAN BUMI BENOWO BLOK B-7 JL. JAWAR SURABAYA",PT. Destini Marine Safety Surabaya,Toko Alat Kelautan,"4,9"," Pergudangan Bumi Benowo, Jl. Jawar Surabaya No.Blok B7, Prambangan, Romokalisari, Benowo, Surabaya, East Java 60192",Gagal,http://www.dms-services.co.id/,-7.2036171,112.6248933,Aktif,· Tutup pukul 17.00,Gagal,"DESTINI MARINE SAFETY, PERGUDANGAN BUMI BENOWO BLOK B-7 JL. JAWAR SURABAYA",Ditemukan
3374069,"KAYU PRIMA LESTARI, RUKO NIRWANA REGENCY BLOK RK NO.79, PENJARINGAN SARI",PT. Kayu Prima Lestari Sby,Kantor Perusahaan,"5,0"," RK79, Jl. Raya Kendalsari No.77, Penjaringan Sari, Kec. Rungkut, Surabaya, Jawa Timur 60297",Gagal,Gagal,-7.3133148,112.7853372,Aktif,· Tutup pukul 17.00,Gagal,"KAYU PRIMA LESTARI, RUKO NIRWANA REGENCY BLOK RK NO.79, PENJARINGAN SARI",Ditemukan
3387523,"TUNAS HARAPAN ENGINEERING & TECHNICAL SUPPLY, JL. BUBUTAN",Pt. Tunas Harapan Engineering & Technical Supply,Buka sekarang,"5,0",Jl. Margomulyo No.F2 F3,Gagal,Gagal,-7.2477708,112.6963062,Aktif,Buka sekarang,Gagal,"TUNAS HARAPAN ENGINEERING & TECHNICAL SUPPLY, JL. BUBUTAN",Ditemukan
3387523,"TUNAS HARAPAN ENGINEERING & TECHNICAL SUPPLY, JL. BUBUTAN",PT. Tunas Harapan Engineering,Insinyur,"4,0",· Jl. Dumar Industri No.F2,(031) 7499142 ext. 7499143,Gagal,-7.2478232,112.6962738,Tutup,· Tutup pukul 16.00,Buka · Tutup pukul 16.00 · Buka · Tutup pukul 16.00,"TUNAS HARAPAN ENGINEERING & TECHNICAL SUPPLY, JL. BUBUTAN",Tidak Ditemukan
3387523,"TUNAS HARAPAN ENGINEERING & TECHNICAL SUPPLY, JL. BUBUTAN",Toko Tunas Harapan,Toko,"5,0",· Jl. Bubutan No.148,0812-3901-5582,Gagal,-7.2486509,112.736619,Aktif,Buka sekarang,Gagal,"TUNAS HARAPAN ENGINEERING & TECHNICAL SUPPLY, JL. BUBUTAN",Tidak Ditemukan
3393730,"REKAYASA TEKNOLOGI MEDIS INDONESIA, JL. UBI II NO.7",PT. ODITAMA JAYA ABADI,Konsultan Sumber Daya Manusia,"5,0",· Jl. Gembili I No.51,0812-5107-0009,Gagal,-7.3064195,112.7411313,Tutup,· Tutup pukul 16.00,Buka · Tutup pukul 16.00 · Buka · Tutup pukul 16.00,"REKAYASA TEKNOLOGI MEDIS INDONESIA, JL. UBI II NO.7",Ditemukan
3393730,"REKAYASA TEKNOLOGI MEDIS INDONESIA, JL. UBI II NO.7",Poltekkes Kemenkes Surabaya,Politeknik,"4,6",· Jl. Pucang Jajar Tengah No.56,(031) 5027058,Gagal,-7.283722,112.761663,Tutup,· Tutup pukul 16.00,Buka · Tutup pukul 16.00 · Buka · Tutup pukul 16.00,"REKAYASA TEKNOLOGI MEDIS INDONESIA, JL. UBI II NO.7",Tidak Ditemukan
3393730,"REKAYASA TEKNOLOGI MEDIS INDONESIA, JL. UBI II NO.7",PT Mega Berlian Sutanpangulu - Outsourcing - Cleaning Service - Security - Surabaya,Jasa Pembersihan,"4,3",· Jl. Ubi II No.15,(031) 8414287,Gagal,-7.3048045,112.7406075,Tutup,· Tutup pukul 16.00,Buka · Tutup pukul 16.00 · Buka · Tutup pukul 16.00,"REKAYASA TEKNOLOGI MEDIS INDONESIA, JL. UBI II NO.7",Tidak Ditemukan
3418489,"POLARI LIMUNUSAINTI, JL RUNGKUT INDUSTRI I",PT.ROMOS INTI COSMETIC,Industri Kosmetik,"5,0"," Jl. Rungkut Industri III No.5, Kutisari, Kec. Tenggilis Mejoyo, Surabaya, Jawa Timur 60293",Gagal,http://romos-inti.com/,-7.3349529,112.7511204,Aktif,Gagal,Gagal,"POLARI LIMUNUSAINTI, JL RUNGKUT INDUSTRI I",Ditemukan
3423495,"ANUGERAH ARTHA KARYA, JL MARGOMULYO NO 44 BLOK K NO 8",Anugerah Artha Karya. PT,Insinyur fabrikasi,"4,5"," Jl. Pergudangan Suri Mulia Kidul No.8 44 Blok K, Balongsari, Tandes, Surabaya, East Java 60183",Gagal,Gagal,-7.2400934,112.6911433,Aktif,Gagal,Gagal,"ANUGERAH ARTHA KARYA, JL MARGOMULYO NO 44 BLOK K NO 8",Ditemukan
3471859,"TATA KARYA MULIA, Jl. HR. Muhammad No. 171 Kav. D 5-6",PT. Tata Karya Mulia,Desainer interior,"3,4"," Komplek Ruko Surya Inti Permata, Jl. Mayjen HR. Muhammad Blok D 5 No.171, Pradahkalikendal, Kec. Dukuhpakis, Surabaya, Jawa Timur 60226",Gagal,Gagal,-7.283241,112.6874583,Aktif,· Tutup pukul 17.00,Gagal,"TATA KARYA MULIA, Jl. HR. Muhammad No. 171 Kav. D 5-6",Ditemukan
3479363,"RANDHOETATAH CEMERLANG, JL TAMAN SIMPANG",PT. Randhoetatah Cemerlang,Pemasok kantong plastik,Gagal," Jl. Taman Simpang No.06, Embong Kaliasin, Kec. Genteng, Surabaya, Jawa Timur 60271",Gagal,Gagal,-7.2637997,112.7469733,Aktif,Gagal,Gagal,"RANDHOETATAH CEMERLANG, JL TAMAN SIMPANG",Ditemukan
3484827,"DEHO CANNING COMPANY, Jl. Kawatan IV No.3, RW.06, Alun-alun Contong, Kec. Bubutan, Surabaya, Jawa Timur 60174",Deho Canning. PT,Pertanian,"5,0"," Jl. Kawatan IV No.3, RW.06, Alun-alun Contong, Kec. Bubutan, Surabaya, Jawa Timur 60174",Gagal,Gagal,-7.2486595,112.7373802,Aktif,Gagal,Gagal,"DEHO CANNING COMPANY, Jl. Kawatan IV No.3, RW.06, Alun-alun Contong, Kec. Bubutan, Surabaya, Jawa Timur 60174",Ditemukan
3504859,"SARANA TEKNO DIGITAL, Jl. Porong No. 1",CV. Sarana Tekno Digital,Gagal,Gagal," Jl. Porong No.1, Darmo, Kec. Wonokromo, Surabaya, Jawa Timur 60231",Gagal,Gagal,-7.2950688,112.7403054,Tutup Permanen,Gagal,Gagal,"SARANA TEKNO DIGITAL, Jl. Porong No. 1",Ditemukan
3523356,"AGRO TANI SEJAHTERA, JL KALIANAK BARAT 55 -U",Cv. Agro tani sejahtera,Gudang,Gagal," Jl. Kalianak Barat No.55-U, Genting Kalianak, Kec. Asem Rowo, Surabaya, Jawa Timur 60183",Gagal,Gagal,-7.2378588,112.7057537,Aktif,Gagal,Gagal,"AGRO TANI SEJAHTERA, JL KALIANAK BARAT 55 -U",Ditemukan
3555926,"TRITUNGGAL CIPTA ANUGERAH, Jl. Kenjeran 336",Tritunggal Cipta Persada,Kontraktor Umum,"5,0"," Jl. Yosodipuro No.21, RT.006/RW.10, Darmo, Kec. Wonokromo, Surabaya, Jawa Timur 60241",Gagal,http://tritunggalciptapersada.weebly.com/,-7.2808808,112.729574,Aktif,· Tutup pukul 17.00,Gagal,"TRITUNGGAL CIPTA ANUGERAH, Jl. Kenjeran 336",Ditemukan
3557544,"METALISHA SENTOSA, JL.MARGOMULYO PERMAI R/1, BUNTARAN",PT. METALISHA SENTOSA,Machine knife supplier,"5,0"," Jl. Pergudangan Margomulyo Permai Blok R/1, Sukomanunggal, Asem Rowo, Surabaya, East Java 60182",Gagal,https://www.metalishasentosa.com/,-7.2527836,112.693915,Aktif,· Tutup pukul 16.30,Gagal,"METALISHA SENTOSA, JL.MARGOMULYO PERMAI R/1, BUNTARAN",Ditemukan
3572353,"ICI PAINTS INDONESIA, JL.PUTAT GEDE TIMUR 7 RT.004 RW.011, PUTAT GEDE",Pt. Ici Paint Indonesia,Gagal,"5,0"," Jl. Margo Mulyo Indah No.Kav. 6, Greges, Kec. Asem Rowo, Surabaya, Jawa Timur 60186",Gagal,Gagal,-7.24899,112.67703,Aktif,Gagal,Gagal,"ICI PAINTS INDONESIA, JL.PUTAT GEDE TIMUR 7 RT.004 RW.011, PUTAT GEDE",Ditemukan
3581246,"MULTI ANEKA PANGAN NUSANTARA, PT, JL. KALISARI I NO.8A, KAPASARI, KEC. GENTENG, SURABAYA, JAWA TIMUR 60273",PT. MULTI ANEKA PANGAN NUSANTARA,Produsen,"4,1"," Jl. Kalisari I No.8A, Kapasari, Kec. Genteng, Surabaya, Jawa Timur 60273",Gagal,Gagal,-7.2510089,112.7476311,Aktif,Gagal,Gagal,"MULTI ANEKA PANGAN NUSANTARA, PT, JL. KALISARI I NO.8A, KAPASARI, KEC. GENTENG, SURABAYA, JAWA TIMUR 60273",Ditemukan
3589330,"UNITED TRACTORS, Jalan Rungkut Industri III No.6",PT UNITED TRACTORS Tbk Cabang Surabaya,Kantor Perusahaan,"4,6"," Jl. Rungkut Industri III No.6, Kutisari, Kec. Tenggilis Mejoyo, Surabaya, Jawa Timur 60291",Gagal,http://www.unitedtractors.com/,-7.3307841,112.7505,Aktif,· Tutup pukul 17.00,Gagal,"UNITED TRACTORS, Jalan Rungkut Industri III No.6",Ditemukan
3592408,"TRIGRAHA SEALISINDO, JL RADEN SALEH",PT. Tri Graha Sealisindo - Surabaya,Kantor Perusahaan,"2,5"," Jl. Raden Saleh No.10B, Bubutan, Kec. Bubutan, Surabaya, Jawa Timur 60174",Gagal,http://www.trigraha.com/,-7.2510254,112.7343521,Aktif,· Tutup pukul 17.00,Gagal,"TRIGRAHA SEALISINDO, JL RADEN SALEH",Ditemukan
3593993,"DUTA ABADIPRIMANTARA, Jln Margomulyo Permai Blok P- 3A, Rt 4 RW 4,kel sukomanunggal Kec Sukomanunggal, Surabaya kode pos 60187",PT.Duta Abadi Primantara Surabaya,Kantor Perusahaan,"4,5"," Jl. Pergudangan Margomulyo Permai No.3A Blok P, Greges, Kec. Asem Rowo, Surabaya, Jawa Timur 60183",Gagal,Gagal,-7.2495309,112.6941172,Aktif,· Tutup pukul 17.00,Gagal,"DUTA ABADIPRIMANTARA, Jln Margomulyo Permai Blok P- 3A, Rt 4 RW 4,kel sukomanunggal Kec Sukomanunggal, Surabaya kode pos 60187",Ditemukan
3628516,"MASH MOSHEM INDONESIA, RUKO MOCA TERRACE",PT Mash Moshem Indonesia,Produsen produk kosmetik,"5,0"," Ruko Dian Istana G11, Moca Terrace, Jl. Dian Istana No. 6-7, Wiyung, Kec. Wiyung, Surabaya, Jawa Timur 60228",Gagal,https://mashmoshem.co.id/,-7.3080676,112.6990333,Aktif,· Tutup pukul 16.00,Gagal,"MASH MOSHEM INDONESIA, RUKO MOCA TERRACE",Ditemukan
3629937,"3M INDONESIA, GEDUNG PLAZA BRI SUITE 504 JL BASUKI RACHMAT",Jl. Basuki Rahmat No.504,Tidak ada ulasan,Gagal,Kec. Genteng,Gagal,Gagal,-7.2726153,112.741925,Aktif,Gagal,Gagal,"3M INDONESIA, GEDUNG PLAZA BRI SUITE 504 JL BASUKI RACHMAT",Ditemukan
3643250,"ABB SAKTI INDUSTRI, JL MARGOMULYO NO 44",PT. ABB Sakti Industri - Surabaya,Pemasok Peralatan Industri,"4,6"," QM7M+H8V, Greges, Kec. Asem Rowo, Surabaya, Jawa Timur 60183",Gagal,Gagal,-7.236017,112.6833015,Aktif,· Tutup pukul 23.00,Gagal,"ABB SAKTI INDUSTRI, JL MARGOMULYO NO 44",Ditemukan
3700441,"Syaffa Inti Medika, PT, Griya Babatan mukti blok P no 6",Kantor Syaffa,Kantor Perusahaan,Gagal," Perumahan, Jl. Griya Babatan Mukti Blok P no 6, Babatan, Kec. Wiyung, Surabaya, Jawa Timur 60227",Gagal,Gagal,-7.3142537,112.6740864,Tutup Sementara,Gagal,Gagal,"Syaffa Inti Medika, PT, Griya Babatan mukti blok P no 6",Ditemukan
3704880,"MERCUGRAHA GEMPOLPERMAI, Komplek Ruko Ambengan Plaza, Jl. Ngemplak No.30 B31, Ketabang, Genteng, Surabaya, East Java 60272",Mercugraha Gempol Permai. PT,Pemasok bahan paving blok,"4,0"," Komplek Ruko Ambengan Plaza, Jl. Ngemplak No.30 B31, Ketabang, Genteng, Surabaya, East Java 60272",Gagal,Gagal,-7.2565408,112.7442736,Aktif,· Tutup pukul 17.00,Gagal,"MERCUGRAHA GEMPOLPERMAI, Komplek Ruko Ambengan Plaza, Jl. Ngemplak No.30 B31, Ketabang, Genteng, Surabaya, East Java 60272",Ditemukan
3740190,"MAJU MEGA MANDIRI, WISMA SIER LT. I JL. RUNGKUT INDUSTRI RAYA NO. 10 RT 000 RW 000, RUNGKUT TENGAH",Bank Mandiri KCP Surabaya Rungkut,Bank,"4,7",· Jl. Rungkut Industri Raya No.10,(031) 8439193,Gagal,-7.330542,112.758457,Tutup,· Tutup pukul 15.00,Buka · Tutup pukul 15.00 · Buka · Tutup pukul 15.00,"MAJU MEGA MANDIRI, WISMA SIER LT. I JL. RUNGKUT INDUSTRI RAYA NO. 10 RT 000 RW 000, RUNGKUT TENGAH",Ditemukan
3740190,"MAJU MEGA MANDIRI, WISMA SIER LT. I JL. RUNGKUT INDUSTRI RAYA NO. 10 RT 000 RW 000, RUNGKUT TENGAH",Kawasan Industri SIER,Kantor Perusahaan,"4,6","· Jl Rungkut Industri Raya 10, Jl. Rungkut Industri III No.60",0811-3535-178,Gagal,-7.3301511,112.759089,Tutup,· Tutup pukul 17.00,Buka · Tutup pukul 17.00 · Buka · Tutup pukul 17.00,"MAJU MEGA MANDIRI, WISMA SIER LT. I JL. RUNGKUT INDUSTRI RAYA NO. 10 RT 000 RW 000, RUNGKUT TENGAH",Tidak Ditemukan
3740190,"MAJU MEGA MANDIRI, WISMA SIER LT. I JL. RUNGKUT INDUSTRI RAYA NO. 10 RT 000 RW 000, RUNGKUT TENGAH",(SIER) Surabaya Industrial Estate Rungkut,Kantor Perusahaan,"4,4",· Jl. Rungkut Industri Raya No.10,(031) 8439981,Gagal,-7.3308334,112.758275,Tutup,· Tutup pukul 17.00,Buka · Tutup pukul 17.00 · Buka · Tutup pukul 17.00,"MAJU MEGA MANDIRI, WISMA SIER LT. I JL. RUNGKUT INDUSTRI RAYA NO. 10 RT 000 RW 000, RUNGKUT TENGAH",Tidak Ditemukan
3740190,"MAJU MEGA MANDIRI, WISMA SIER LT. I JL. RUNGKUT INDUSTRI RAYA NO. 10 RT 000 RW 000, RUNGKUT TENGAH",Bank Mandiri KCP Surabaya Rungkut Megah Raya,Bank,"4,8","· Pertokoan Rungkut Megah Raya, Jl. Raya Kalirungkut Blok E/5-6 No.5",(031) 8720706,Gagal,-7.312435,112.7697066,Tutup,· Tutup pukul 15.00,Buka · Tutup pukul 15.00 · Buka · Tutup pukul 15.00,"MAJU MEGA MANDIRI, WISMA SIER LT. I JL. RUNGKUT INDUSTRI RAYA NO. 10 RT 000 RW 000, RUNGKUT TENGAH",Tidak Ditemukan
3740190,"MAJU MEGA MANDIRI, WISMA SIER LT. I JL. RUNGKUT INDUSTRI RAYA NO. 10 RT 000 RW 000, RUNGKUT TENGAH",Kantor Sier,Pusat Bisnis,"4,5","· SIER) Surabaya Industrial Estate Rungkut, Jl. Rungkut Industri Raya No.10 1st floor",(031) 8439581,Gagal,-7.330942,112.758033,Tutup,· Tutup pukul 17.00,Buka · Tutup pukul 17.00 · Buka · Tutup pukul 17.00,"MAJU MEGA MANDIRI, WISMA SIER LT. I JL. RUNGKUT INDUSTRI RAYA NO. 10 RT 000 RW 000, RUNGKUT TENGAH",Tidak Ditemukan
3742138,"SURYA SEJATI MULIA, RUKO KLAMPIS JAYA 21 C, JALAN RAYA KLAMPIS JAYA",Raja Triplek,Pemasok kayu lapis,"4,1","· Ruko Klampis Square, Jl. Klampis Jaya No.A7",0812-3588-7801,Gagal,-7.2863459,112.776057,Tutup,· Tutup pukul 16.30,"· Ruko Klampis Square, Jl. Klampis Jaya No.A7 · Ruko Klampis Square, Jl. Klampis Jaya No.A7","SURYA SEJATI MULIA, RUKO KLAMPIS JAYA 21 C, JALAN RAYA KLAMPIS JAYA",Ditemukan
3742138,"SURYA SEJATI MULIA, RUKO KLAMPIS JAYA 21 C, JALAN RAYA KLAMPIS JAYA",SURYA SEJATI MOTOR,Toko Suku Cadang Mobil,"4,6","· No.36-46 B17, Jl. Kedung Doro",0822-2951-0193,Gagal,-7.2622148,112.7314144,Tutup,· Tutup pukul 17.00,Buka · Tutup pukul 17.00 · Buka · Tutup pukul 17.00,"SURYA SEJATI MULIA, RUKO KLAMPIS JAYA 21 C, JALAN RAYA KLAMPIS JAYA",Tidak Ditemukan
3742138,"SURYA SEJATI MULIA, RUKO KLAMPIS JAYA 21 C, JALAN RAYA KLAMPIS JAYA",Karya Mas Sejati,Penyedia peralatan listrik,"4,8",Gagal,0811-3522-889,Gagal,-6.914709,113.5832404,Aktif,Tutup,Tutup · Buka Sel pukul 09.00 · Tutup · Buka Sel pukul 09.00,"SURYA SEJATI MULIA, RUKO KLAMPIS JAYA 21 C, JALAN RAYA KLAMPIS JAYA",Tidak Ditemukan
3745871,"WANG HENG MIN INDONESIA, JL. MARGOMULYO MUTIARA INDAH BLOK B NO 31",Pergudangan Mutiara MARGOMULYO INDAH,Gudang,"4,2"," QM4C+GWH, Jl. Margomulyo Indah III, Buntaran, Kec. Tandes, Surabaya, Jawa Timur 60184",Gagal,Gagal,-7.2436858,112.6723708,Aktif,· Tutup pukul 17.00,Gagal,"WANG HENG MIN INDONESIA, JL. MARGOMULYO MUTIARA INDAH BLOK B NO 31",Ditemukan
3747220,"NUSANTARA OLINDO PERKASA, GAYUNGSARI",PT Energi Nusantara Perkasa,Perusahaan Gas,"4,3",· Jalan Harun Tohir No.1,(031) 502466999,Gagal,-7.1676936,112.6657076,Tutup,· Tutup pukul 17.00,Buka · Tutup pukul 17.00 · Buka · Tutup pukul 17.00,"NUSANTARA OLINDO PERKASA, GAYUNGSARI",Ditemukan
3747220,"NUSANTARA OLINDO PERKASA, GAYUNGSARI",Nusantara Market,Toko Buah dan Sayuran,"3,9",· Jl. Labansari Utara I No.27 A,0812-4982-6092,Gagal,-7.2571875,112.7910784,Aktif,Buka 24 jam,Buka 24 jam · Buka 24 jam,"NUSANTARA OLINDO PERKASA, GAYUNGSARI",Tidak Ditemukan
3747220,"NUSANTARA OLINDO PERKASA, GAYUNGSARI",PT. Nusantara Megah Raya,Pengembang Realestat,"4,6","· Jl. Raya Manyar No.24 004, RT.004/RW.02",(031) 5040618,Gagal,-7.2907062,112.7624873,Aktif,Buka sekarang,Gagal,"NUSANTARA OLINDO PERKASA, GAYUNGSARI",Tidak Ditemukan
3747220,"NUSANTARA OLINDO PERKASA, GAYUNGSARI",PT. INDOHASTA NUSANTARA,Perusahaan Konstruksi,"5,0",Gagal,(031) 58287962,Gagal,-7.2412738,112.6643581,Tutup,· Tutup pukul 17.00,Buka · Tutup pukul 17.00 · Buka · Tutup pukul 17.00,"NUSANTARA OLINDO PERKASA, GAYUNGSARI",Tidak Ditemukan
3747220,"NUSANTARA OLINDO PERKASA, GAYUNGSARI",FiberStar Surabaya,Penyedia Layanan Telekomunikasi,"3,9",· Ruko Grand Ketintang Jl. Ketintang Baru 1 No. 14i Kel,(031) 99208200,Gagal,-7.3184075,112.7312539,Tutup,· Tutup pukul 17.00,Buka · Tutup pukul 17.00 · Buka · Tutup pukul 17.00,"NUSANTARA OLINDO PERKASA, GAYUNGSARI",Tidak Ditemukan
3777980,"SINAR KHARISMA TIMUR RAYA, Teluk Tomini 21",Sinar Kharisma Timur Raya,Toko Perlengkapan Militer & Angkatan Laut,"5,0",Gagal,Gagal,Gagal,-2.44565,117.8888,Aktif,Gagal,Gagal,"SINAR KHARISMA TIMUR RAYA, Teluk Tomini 21",Ditemukan
3785725,"TRI MEGAH JAYA ABADI, Wiyung Brantas Permai 6 no. 10",Jl. Wiyung Brantas Permai VI No.10,Tidak ada ulasan,Gagal,Kec. Wiyung,Gagal,Gagal,-7.3137856,112.6885505,Aktif,Gagal,Gagal,"TRI MEGAH JAYA ABADI, Wiyung Brantas Permai 6 no. 10",Ditemukan
3785725,"TRI MEGAH JAYA ABADI, Wiyung Brantas Permai 6 no. 10",Megah Jaya Abadi (Servis AC Surabaya),Tidak ada ulasan,Gagal,· Jl. Jambangan Baru II No.19,Gagal,Gagal,-7.3167039,112.718544,Aktif,Gagal,· Jl. Jambangan Baru II No.19 · Jl. Jambangan Baru II No.19,"TRI MEGAH JAYA ABADI, Wiyung Brantas Permai 6 no. 10",Tidak Ditemukan
3796947,"MULTI LANCAR ABADI, JL PEMUDA",Lancar abadi,Pasar bahan bangunan,"4,8",Gagal,Gagal,Gagal,-7.4242197,112.281233,Tutup,· Tutup pukul 16.30,Buka · Tutup pukul 16.30 · Buka · Tutup pukul 16.30,"MULTI LANCAR ABADI, JL PEMUDA",Ditemukan
3796947,"MULTI LANCAR ABADI, JL PEMUDA",PT. Multi Power Abadi,Jasa Renovasi,"5,0",· Jl. Gn. Anyar Tambak IV No.50,0811-272-825,Gagal,-7.3441412,112.8048512,Aktif,Buka 24 jam,· Jl. Gn. Anyar Tambak IV No.50 · Jl. Gn. Anyar Tambak IV No.50,"MULTI LANCAR ABADI, JL PEMUDA",Tidak Ditemukan
3806638,"DIPANEGARA, Jl. Ngagel Wasana III No.34 C, Baratajaya, Kec. Gubeng, Surabaya, Jawa Timur 60284",Jl. Ngagel Wasana III No.34 C,Tidak ada ulasan,Gagal,Kec. Gubeng,Gagal,Gagal,-7.291062,112.7619779,Aktif,Gagal,Gagal,"DIPANEGARA, Jl. Ngagel Wasana III No.34 C, Baratajaya, Kec. Gubeng, Surabaya, Jawa Timur 60284",Ditemukan
3842457,"Alexander Perkasa, JL.KALIANAK BARAT 70 B",Alexander Perkasa. PT,Pemasok Aluminium,"4,4","· Jl. Kalianak Barat No.70-B, 60193",(031) 7494770,Gagal,-7.228321,112.7012939,Tutup,· Tutup pukul 16.00,Buka · Tutup pukul 16.00 · Buka · Tutup pukul 16.00,"Alexander Perkasa, JL.KALIANAK BARAT 70 B",Ditemukan
3842457,"Alexander Perkasa, JL.KALIANAK BARAT 70 B",SHOWROOM ALEXANDER PERKASA (SURABAYA),Pemasok Pintu,"5,0",· Ruko Kalianak Permai Jl. Kalianak No.73,0851-7155-4770,Gagal,-7.2300173,112.6898113,Tutup,· Tutup pukul 17.00,Buka · Tutup pukul 17.00 · Buka · Tutup pukul 17.00,"Alexander Perkasa, JL.KALIANAK BARAT 70 B",Tidak Ditemukan
3844768,"Perkasa Adi Daya Indonesia, PT, JL. Gresik No. 58 RT. 005 RW. 02, Perak Barat",PT. Perkasa Adi Daya Indonesia,Penyedia peralatan listrik,"5,0"," Kompleks Ruko Pasar Modern no. 67, Jl. Raya Darmo Permai III, Sukomanunggal, Kec. Sukomanunggal, Surabaya, Jawa Timur 60188",Gagal,http://www.padi-electric.com/,-7.2773541,112.6907306,Aktif,· Tutup pukul 16.30,Gagal,"Perkasa Adi Daya Indonesia, PT, JL. Gresik No. 58 RT. 005 RW. 02, Perak Barat",Ditemukan
3852502,"GLOBAL PORT ENGINEERING INDONESIA, JAPFA TOWER 2 LANTAI 12, JL. PANGLIMA SUDIRMAN KAV 66-68","JAPFA Indoland Center, Japfa Tower II",Kantor Perusahaan,"4,7"," Jl. Panglima Sudirman No.66-68, Embong Kaliasin, Kec. Genteng, Surabaya, Jawa Timur 60271",Gagal,https://linktr.ee/japfaindolandcenter,-7.27193,112.7425585,Aktif,· Tutup pukul 17.00,Gagal,"GLOBAL PORT ENGINEERING INDONESIA, JAPFA TOWER 2 LANTAI 12, JL. PANGLIMA SUDIRMAN KAV 66-68",Ditemukan
3853203,"PURI PANCA PUJIBANGUN, Jl. Mastrip 70 Karangpilang (Kawasan Industri Wirajatim)",PT Puri Panca Pujibangun,Percetakan Komersial,"4,7"," Karang Pilang, Kec. Karangpilang, Surabaya, Jawa Timur 60221",Gagal,Gagal,-7.341146,112.6903354,Aktif,· Tutup pukul 17.00,Gagal,"PURI PANCA PUJIBANGUN, Jl. Mastrip 70 Karangpilang (Kawasan Industri Wirajatim)",Ditemukan
3856377,"ARUM SAMUDERA, JL. TELUK KUMAI BARAT NO.124-A, PERAK UTARA",Alam Global Samudra. PT,Tidak ada ulasan,Gagal,"· Jl. Teluk Kumai Barat No.108, RT.003/RW.02",(031) 3292370,Gagal,-7.215317,112.734151,Aktif,Gagal,Gagal,"ARUM SAMUDERA, JL. TELUK KUMAI BARAT NO.124-A, PERAK UTARA",Ditemukan
3856377,"ARUM SAMUDERA, JL. TELUK KUMAI BARAT NO.124-A, PERAK UTARA",Jayantara Setia Sejahtera. PT - Surabaya Branch,Jasa Pengiriman Kargo,"4,6",· Jl. Teluk Kumai Barat No.124,(031) 3291007,Gagal,-7.2147616,112.7342084,Aktif,Gagal,Gagal,"ARUM SAMUDERA, JL. TELUK KUMAI BARAT NO.124-A, PERAK UTARA",Tidak Ditemukan
3856377,"ARUM SAMUDERA, JL. TELUK KUMAI BARAT NO.124-A, PERAK UTARA",Citra Az-Zahra,Buka sekarang,"5,0",Biro Perjalanan dan Wisata,(031) 3282818,Gagal,-7.213881,112.7341,Aktif,Buka sekarang,Gagal,"ARUM SAMUDERA, JL. TELUK KUMAI BARAT NO.124-A, PERAK UTARA",Tidak Ditemukan
3859206,"TIRTA PERSADA UTAMA, JL NGAGELREJO KIDUL",CV. Wiratirta,Kontraktor Kolam Renang,"5,0"," Jl. Bratang Gede 3H No.38, Ngagelrejo, Kec. Wonokromo, Surabaya, Jawa Timur 60245",Gagal,Gagal,-7.3013252,112.7548736,Aktif,Gagal,Buka 24 jam·Lihat jam lainnya,"TIRTA PERSADA UTAMA, JL NGAGELREJO KIDUL",Ditemukan
3873213,"SANDEQ MARINE INDONESIA, PQFV+3GH Gedung Inkubator Bisnis, Jl. Teknik Kimia, Keputih, Kec. Sukolilo, Surabaya, Jawa Timur 60117","PT. SANDEQ MARINE INDONESIA. Produsen Speed Boat, Jual Kapal Fiberglass, Kapal Aluminium",Pembuat Kapal,"4,9"," PQFV+3GH Gedung Inkubator Bisnis, Jl. Teknik Kimia, Keputih, Kec. Sukolilo, Surabaya, Jawa Timur 60117",Gagal,Gagal,-7.2773037,112.7938742,Aktif,· Tutup pukul 15.00,Gagal,"SANDEQ MARINE INDONESIA, PQFV+3GH Gedung Inkubator Bisnis, Jl. Teknik Kimia, Keputih, Kec. Sukolilo, Surabaya, Jawa Timur 60117",Ditemukan
3874986,"MULYO MUKTI BERSAMA, JL GUNUNG ANYAR LOR",Jl. Gunung Anyar Lor,Tidak ada ulasan,Gagal,Kec. Gn. Anyar,Gagal,Gagal,-7.3347639,112.7808837,Aktif,Gagal,Gagal,"MULYO MUKTI BERSAMA, JL GUNUNG ANYAR LOR",Ditemukan
3893025,"TRILUHUR RAYAABADI, JL.JEMURSARI UTARA V",PT Bakti Luhur Abadi,Kantor Perusahaan,"5,0",· Jl. Amir Mahmud IX No.13,Gagal,Gagal,-7.3377847,112.7832455,Tutup,· Tutup pukul 17.00,· Jl. Amir Mahmud IX No.13 · Jl. Amir Mahmud IX No.13,"TRILUHUR RAYAABADI, JL.JEMURSARI UTARA V",Ditemukan
3893025,"TRILUHUR RAYAABADI, JL.JEMURSARI UTARA V",ABLC Toddler | Playgroup | Kindergarten,Taman Kanak-kanak,"5,0",· Jl. Jemursari Utara II No.mor 26,(031) 8438044,Gagal,-7.3243672,112.7381932,Tutup,· Tutup pukul 15.30,Buka · Tutup pukul 15.30 · Buka · Tutup pukul 15.30,"TRILUHUR RAYAABADI, JL.JEMURSARI UTARA V",Tidak Ditemukan
3893025,"TRILUHUR RAYAABADI, JL.JEMURSARI UTARA V",MAKMUR ABADI,Pusat Perbelanjaan,"4,6",· Jl. Baliwerti No.74,0822-9957-5782,Gagal,-7.2531508,112.7360693,Tutup,· Tutup pukul 16.30,Buka · Tutup pukul 16.30 · Buka · Tutup pukul 16.30,"TRILUHUR RAYAABADI, JL.JEMURSARI UTARA V",Tidak Ditemukan
3893025,"TRILUHUR RAYAABADI, JL.JEMURSARI UTARA V",Graha Mahameru,Ruang Serbaguna,"4,6",· Jl. Raya Jemursari No.73,(031) 99853782,Gagal,-7.3223216,112.74277,Aktif,Segera buka · 10.30,Segera buka · 10.30 · Segera buka · 10.30,"TRILUHUR RAYAABADI, JL.JEMURSARI UTARA V",Tidak Ditemukan
3893025,"TRILUHUR RAYAABADI, JL.JEMURSARI UTARA V",The Southern Hotel Surabaya,Hotel penuh warna dengan kolam outdoor,"4,5",Gagal,(031) 8498999,Gagal,-7.3220385,112.7451363,Aktif,Gagal,Gagal,"TRILUHUR RAYAABADI, JL.JEMURSARI UTARA V",Tidak Ditemukan
